FEATURE_ID,LOWERCASE TOWNNAME,TOWNNAME,FEATURE_CLASS,COUNTY_NAME,COUNTY_NUMERIC,PRIM_LAT_DEC,PRIM_LONG_DEC,DATE_CREATED,DATE_EDITED
429980,Aaron,AARON,Populated Place,Switzerland,155,38.8831147,-85.125787,2/14/79,
429985,Aberdeen,ABERDEEN,Populated Place,Ohio,115,38.9053377,-84.9874511,2/14/79,5/12/14
2038158,Aberdeen,ABERDEEN,Populated Place,Porter,127,41.4389274,-87.1114196,10/1/82,1/12/11
2629862,Aberdeen Census Designated Place,ABERDEEN CENSUS DESIGNATED PLACE,Census,Porter,127,41.4417936,-87.1166183,8/30/10,4/25/13
429988,Abington,ABINGTON,Populated Place,Wayne,177,39.7331033,-84.9630172,2/14/79,
429991,Aboite,ABOITE,Populated Place,Allen,3,41.0008805,-85.3180293,2/14/79,
450618,Abydel,ABYDEL,Populated Place,Orange,117,38.5706099,-86.5611014,2/14/79,
446644,Academie,ACADEMIE,Populated Place,Allen,3,41.1708819,-85.1458048,10/1/82,
429998,Acme,ACME,Populated Place,Jackson,71,38.9781078,-86.0588715,2/14/79,
429999,Acton,ACTON,Populated Place,Marion,97,39.6556013,-85.9669266,2/14/79,3/7/07
430001,Adams,ADAMS,Populated Place,Decatur,31,39.3825496,-85.559973,2/14/79,5/12/14
430002,Adams,ADAMS,Populated Place,Morgan,109,39.4822701,-86.3555484,2/14/79,
450401,Adams County,ADAMS COUNTY,Civil,Adams,1,40.7456599,-84.9366547,2/14/79,1/8/13
430014,Adams Mill,ADAMS MILL,Populated Place,Carroll,15,40.4805914,-86.5088864,2/14/79,
449611,Adamsboro,ADAMSBORO,Populated Place,Cass,17,40.7844845,-86.2669413,2/14/79,12/12/05
430017,Ade,ADE,Populated Place,Newton,111,40.8683693,-87.4447497,2/14/79,
430020,Adel,ADEL,Populated Place,Owen,119,39.1919894,-86.7958389,2/14/79,5/10/14
430023,Advance,ADVANCE,Populated Place,Boone,11,39.9958763,-86.620004,2/14/79,3/20/08
430024,Adyeville,ADYEVILLE,Populated Place,Perry,123,38.1908898,-86.7694347,2/14/79,5/12/14
430025,Aetna,AETNA,Populated Place,Lake,89,41.5919809,-87.2894814,2/14/79,
430026,Africa,AFRICA,Populated Place,Spencer,147,37.8403271,-87.0727745,2/14/79,
430149,Ainsworth,AINSWORTH,Populated Place,Lake,89,41.4878149,-87.2586458,10/1/82,5/10/14
430034,Aix,AIX,Populated Place,Jasper,73,41.0414261,-87.1514139,2/14/79,
430038,Akron,AKRON,Populated Place,Fulton,49,41.0383766,-86.0280502,2/14/79,5/12/14
430039,Alamo,ALAMO,Populated Place,Montgomery,107,39.9819877,-87.0572313,2/14/79,3/20/08
430040,Alaska,ALASKA,Populated Place,Owen,119,39.4703246,-86.6413912,2/14/79,
430041,Albany,ALBANY,Populated Place,Delaware,35,40.3008764,-85.2419145,2/14/79,3/20/08
430043,Albion,ALBION,Populated Place,Scott,143,38.7436684,-85.7341334,2/14/79,
430044,Albion,ALBION,Populated Place,Noble,113,41.3956043,-85.4244241,2/14/79,3/20/08
430054,Aldine,ALDINE,Populated Place,Starke,149,41.2008742,-86.6744581,2/14/79,5/10/14
430058,Alert,ALERT,Populated Place,Decatur,31,39.16033,-85.6783093,2/14/79,
430066,Alexandria,ALEXANDRIA,Populated Place,Madison,95,40.2628184,-85.675809,2/14/79,3/20/08
430069,Alfont,ALFONT,Populated Place,Madison,95,39.9514295,-85.8147012,2/14/79,
430070,Alford,ALFORD,Populated Place,Pike,125,38.4914383,-87.2427898,2/14/79,
430072,Alfordsville,ALFORDSVILLE,Populated Place,Daviess,27,38.5606067,-86.9483354,2/14/79,5/10/14
430075,Algiers,ALGIERS,Populated Place,Pike,125,38.4872721,-87.1750093,2/14/79,
430076,Alida,ALIDA,Populated Place,LaPorte,91,41.5105967,-86.903082,2/14/79,
446643,Allen,ALLEN,Populated Place,Allen,3,41.2000484,-85.1958063,10/1/82,
450402,Allen County,ALLEN COUNTY,Civil,Allen,3,41.0908711,-85.0665628,2/14/79,1/8/13
430089,Allen Crossing,ALLEN CROSSING,Populated Place,Ripley,137,39.1039425,-85.3169058,2/14/79,
430096,Allendale,ALLENDALE,Populated Place,Vigo,167,39.3917047,-87.3958531,2/14/79,
452241,Allens Acres,ALLENS ACRES,Populated Place,Boone,11,39.9928176,-86.3030503,2/14/79,7/24/06
430098,Allensville,ALLENSVILLE,Populated Place,Switzerland,155,38.8731158,-85.020229,2/14/79,
430101,Alliance,ALLIANCE,Populated Place,Madison,95,40.0333763,-85.6499762,2/14/79,
430104,Allisonville,ALLISONVILLE,Populated Place,Marion,97,39.9050392,-86.078319,2/14/79,
430107,Allman,ALLMAN,Populated Place,Morgan,109,39.6172687,-86.4311062,2/14/79,
447125,Alma Lake,ALMA LAKE,Populated Place,Parke,121,39.6083767,-87.0194574,10/1/82,
2107801,Al-Mar,AL-MAR,Populated Place,Johnson,81,39.5447222,-86.205,2/26/07,
430115,Alpine,ALPINE,Populated Place,Fayette,41,39.5539375,-85.1757968,2/14/79,5/10/14
430116,Alquina,ALQUINA,Populated Place,Fayette,41,39.6128262,-85.0546845,2/14/79,
430118,Alta,ALTA,Populated Place,Vermillion,165,39.7722603,-87.3866837,2/14/79,
430119,Altamont Switch,ALTAMONT SWITCH,Populated Place,Tippecanoe,157,40.3786469,-86.8744529,2/14/79,
430122,Alto,ALTO,Populated Place,Howard,67,40.4400378,-86.1655485,2/14/79,
450627,Alton,ALTON,Populated Place,Crawford,25,38.122564,-86.4177559,2/14/79,3/20/08
430124,Altona,ALTONA,Populated Place,DeKalb,33,41.3514383,-85.1549719,2/14/79,3/20/08
430126,Alvarado,ALVARADO,Populated Place,Steuben,151,41.5767171,-84.8377368,2/14/79,
430128,Ambia,AMBIA,Populated Place,Benton,7,40.4900363,-87.5169642,2/14/79,5/10/14
430129,Ambler,AMBLER,Populated Place,LaPorte,91,41.7158744,-86.7966937,2/14/79,
430130,Amboy,AMBOY,Populated Place,Miami,103,40.6014291,-85.9288757,2/14/79,3/20/08
448390,America,AMERICA,Populated Place,Wabash,169,40.6792089,-85.7019246,10/1/82,
430134,Americus,AMERICUS,Populated Place,Tippecanoe,157,40.5258695,-86.7580635,2/14/79,1/29/11
2583445,Americus Census Designated Place,AMERICUS CENSUS DESIGNATED PLACE,Census,Tippecanoe,157,40.5253967,-86.7475401,3/31/10,4/25/13
430136,Ames,AMES,Populated Place,Montgomery,107,40.033376,-86.8869517,2/14/79,
430138,Amity,AMITY,Populated Place,Johnson,81,39.4261618,-86.0010995,2/14/79,
430143,Amo,AMO,Populated Place,Hendricks,63,39.6881019,-86.6136129,2/14/79,3/20/08
430152,Anderson,ANDERSON,Populated Place,Madison,95,40.1053196,-85.6802541,2/14/79,3/20/08
2514871,Anderson Mobile Home Park,ANDERSON MOBILE HOME PARK,Populated Place,Lake,89,41.5741667,-87.4272222,12/16/08,
430166,Andersonville,ANDERSONVILLE,Populated Place,Delaware,35,40.2186541,-85.4310827,2/14/79,
430167,Andersonville,ANDERSONVILLE,Populated Place,Franklin,47,39.4975488,-85.2888542,2/14/79,
430170,Andrews,ANDREWS,Populated Place,Huntington,69,40.8625448,-85.6016458,2/14/79,5/10/14
430173,Andry,ANDRY,Populated Place,LaPorte,91,41.7178195,-86.7580815,2/14/79,
430179,Angola,ANGOLA,Populated Place,Steuben,151,41.6347726,-84.9994088,2/14/79,3/20/08
430180,Anita,ANITA,Populated Place,Johnson,81,39.4258821,-86.1913786,2/14/79,
430181,Annandale Estates,ANNANDALE ESTATES,Populated Place,Brown,13,39.2178262,-86.2661016,2/14/79,
430182,Annapolis,ANNAPOLIS,Populated Place,Parke,121,39.8525403,-87.2505685,2/14/79,
430184,Anoka,ANOKA,Populated Place,Cass,17,40.721984,-86.2824967,2/14/79,
430186,Ansley Acres,ANSLEY ACRES,Populated Place,Allen,3,41.0783813,-85.2121945,2/14/79,
430191,Anthony,ANTHONY,Populated Place,Delaware,35,40.2778203,-85.4360827,2/14/79,
430196,Anthony Wayne Village,ANTHONY WAYNE VILLAGE,Populated Place,Allen,3,41.0394926,-85.1055253,2/14/79,
430197,Antioch,ANTIOCH,Populated Place,Switzerland,155,38.8595061,-84.8838378,2/14/79,
430198,Antioch,ANTIOCH,Populated Place,Clinton,23,40.2280928,-86.505836,2/14/79,5/10/14
430199,Antioch,ANTIOCH,Populated Place,Jay,75,40.3678229,-84.9421887,2/14/79,
446729,Antioch,ANTIOCH,Populated Place,Greene,55,39.0986542,-87.2375146,10/1/82,
430218,Antioch Grange,ANTIOCH GRANGE,Populated Place,Jefferson,77,38.7372814,-85.4702374,2/14/79,
430219,Antiville,ANTIVILLE,Populated Place,Jay,75,40.4975455,-84.978579,2/14/79,
450634,Apalona,APALONA,Populated Place,Perry,123,38.1545037,-86.6322075,2/14/79,
2515249,Apple Valley Estates,APPLE VALLEY ESTATES,Populated Place,Porter,127,41.2911111,-87.3108333,12/19/08,
452166,Arabia,ARABIA,Populated Place,Parke,121,39.7661501,-87.3219602,10/1/82,
430231,Arba,ARBA,Populated Place,Randolph,135,40.0108807,-84.8669056,2/14/79,5/10/14
2109634,Arborview Mobile Home Park,ARBORVIEW MOBILE HOME PARK,Populated Place,Hendricks,63,39.7797222,-86.3383333,3/8/07,
430234,Arcadia,ARCADIA,Populated Place,Hamilton,57,40.1758704,-86.0216521,2/14/79,5/10/14
430235,Arcana,ARCANA,Populated Place,Grant,53,40.5386532,-85.5033061,2/14/79,
430240,Arcola,ARCOLA,Populated Place,Allen,3,41.1036587,-85.294141,2/14/79,
430239,Arctic Springs,ARCTIC SPRINGS,Populated Place,Clark,19,38.2831257,-85.7113511,2/14/79,
430241,Arda,ARDA,Populated Place,Pike,125,38.5172714,-87.2505682,2/14/79,
452533,Ardmore,ARDMORE,Populated Place,St. Joseph,141,41.689214,-86.3175095,2/14/79,
430243,Argos,ARGOS,Populated Place,Marshall,99,41.2378,-86.214646,2/14/79,5/10/14
450509,Ari,ARI,Populated Place,Noble,113,41.2636595,-85.2494193,2/14/79,
430244,Arlington,ARLINGTON,Populated Place,Monroe,105,39.1839358,-86.5499977,2/14/79,
430245,Arlington,ARLINGTON,Populated Place,Rush,139,39.6425462,-85.576363,2/14/79,5/10/14
2629872,Arlington Census Designated Place,ARLINGTON CENSUS DESIGNATED PLACE,Census,Rush,139,39.6458085,-85.5796379,8/30/10,4/25/13
449613,Armiesburg,ARMIESBURG,Populated Place,Parke,121,39.7633719,-87.3511275,2/14/79,
430257,Armstrong,ARMSTRONG,Populated Place,Vanderburgh,163,38.10921,-87.6472434,2/14/79,5/10/14
430270,Arney,ARNEY,Populated Place,Owen,119,39.2186546,-86.9316754,2/14/79,
430277,Aroma,AROMA,Populated Place,Hamilton,57,40.1994831,-85.8741475,2/14/79,5/10/14
430280,Arrowhead Park,ARROWHEAD PARK,Populated Place,Kosciusko,85,41.2789341,-85.7899895,2/14/79,
430282,Art,ART,Populated Place,Clay,21,39.4028185,-87.1552929,2/14/79,
430283,Arthur,ARTHUR,Populated Place,Pike,125,38.3406051,-87.2458422,2/14/79,
430286,Artic,ARTIC,Populated Place,DeKalb,33,41.4736618,-84.814681,2/14/79,
430287,Artist Point,ARTIST POINT,Populated Place,Crawford,25,38.1608979,-86.370533,2/14/79,
449614,Ash Grove,ASH GROVE,Populated Place,Tippecanoe,157,40.5478136,-86.8477882,2/14/79,
430301,Ash Iron Springs,ASH IRON SPRINGS,Populated Place,Warrick,173,38.0353258,-87.186669,2/14/79,
449615,Ashboro,ASHBORO,Populated Place,Clay,21,39.3989303,-87.1058475,2/14/79,5/10/14
449759,Ashby (historical),ASHBY (HISTORICAL),Populated Place,Franklin,47,39.3300532,-84.9016219,5/1/91,
449831,Ashby Yards,ASHBY YARDS,Populated Place,Pike,125,38.4744934,-87.2847354,2/14/79,
447632,Asherville,ASHERVILLE,Populated Place,Clay,21,39.4747642,-87.0622365,10/1/82,5/10/14
430310,Ashland,ASHLAND,Populated Place,Henry,65,39.9261576,-85.3044119,2/14/79,5/10/14
430312,Ashley,ASHLEY,Populated Place,DeKalb,33,41.526203,-85.066784,2/14/79,3/20/08
2107248,Ashwood,ASHWOOD,Populated Place,Hamilton,57,39.9802778,-85.9783333,2/16/07,
430316,Asphaltum,ASPHALTUM,Populated Place,Jasper,73,41.1003167,-86.9980777,2/14/79,
430320,Athens,ATHENS,Populated Place,Fulton,49,41.0536539,-86.1252751,2/14/79,
430321,Atherton,ATHERTON,Populated Place,Vigo,167,39.6080931,-87.3619627,2/14/79,
430324,Atkinson,ATKINSON,Populated Place,Benton,7,40.5628151,-87.2466824,2/14/79,
430328,Atkinsonville,ATKINSONVILLE,Populated Place,Owen,119,39.3778221,-86.8733423,2/14/79,5/10/14
430329,Atlanta,ATLANTA,Populated Place,Hamilton,57,40.2153151,-86.0263746,2/14/79,5/10/14
430330,Attica,ATTICA,Populated Place,Fountain,45,40.2942039,-87.2488988,2/14/79,3/20/08
430332,Atwood,ATWOOD,Populated Place,Kosciusko,85,41.2608779,-85.9752735,2/14/79,5/10/14
430334,Auburn,AUBURN,Populated Place,DeKalb,33,41.3669942,-85.0588575,2/14/79,3/20/08
430337,Auburn Junction,AUBURN JUNCTION,Populated Place,DeKalb,33,41.3519941,-85.0746914,2/14/79,
2107783,Auburn Trace,AUBURN TRACE,Populated Place,Johnson,81,39.5944444,-86.1808333,2/26/07,
430341,Augusta,AUGUSTA,Populated Place,Pike,125,38.3314391,-87.1908399,2/14/79,
430342,Augusta,AUGUSTA,Populated Place,Marion,97,39.8900408,-86.2122122,2/14/79,5/10/14
430346,Aultshire,AULTSHIRE,Populated Place,Delaware,35,40.2119876,-85.3460815,2/14/79,
430347,Aurora,AURORA,Populated Place,Dearborn,29,39.0570022,-84.9013402,2/14/79,5/10/14
430350,Austin,AUSTIN,Populated Place,Scott,143,38.75839,-85.8080251,2/14/79,3/20/08
2101373,Austin Oaks,AUSTIN OAKS,Populated Place,Hamilton,57,39.9747222,-86.245,2/1/07,8/1/07
430352,Avalon,AVALON,Populated Place,Allen,3,41.016159,-85.1577484,2/14/79,
430353,Avalon Hills,AVALON HILLS,Populated Place,Marion,97,39.8780953,-86.055818,2/14/79,
2514872,Avenue Mobile Home Park,AVENUE MOBILE HOME PARK,Populated Place,Lake,89,41.5322222,-87.37,12/16/08,
430354,Avery,AVERY,Populated Place,Clinton,23,40.3089254,-86.4405555,2/14/79,
430357,Avilla,AVILLA,Populated Place,Noble,113,41.3658824,-85.2388635,2/14/79,3/20/08
450637,Avoca,AVOCA,Populated Place,Lawrence,93,38.9119941,-86.5477729,2/14/79,1/29/11
2629855,Avoca Census Designated Place,AVOCA CENSUS DESIGNATED PLACE,Census,Lawrence,93,38.9171971,-86.5556422,8/30/10,4/25/13
430358,Avon,AVON,Populated Place,Hendricks,63,39.7628227,-86.3997168,2/14/79,5/10/14
430360,Avonburg,AVONBURG,Populated Place,Switzerland,155,38.8864475,-85.172177,2/14/79,
430366,Aylesworth,AYLESWORTH,Populated Place,Porter,127,41.3183714,-87.113362,2/14/79,
430367,Aylesworth,AYLESWORTH,Populated Place,Fountain,45,40.2030936,-87.2430648,2/14/79,
430370,Ayrshire,AYRSHIRE,Populated Place,Pike,125,38.3719939,-87.2408427,2/14/79,
430372,Azalia,AZALIA,Populated Place,Bartholomew,5,39.0917191,-85.8472031,2/14/79,
430375,Babcock,BABCOCK,Populated Place,Porter,127,41.5725382,-87.1050328,2/14/79,
450640,Bacon,BACON,Populated Place,Orange,117,38.4106142,-86.4333172,2/14/79,
430397,Badger Grove,BADGER GROVE,Populated Place,White,181,40.5836468,-86.9636247,2/14/79,
430411,Baileys Corner,BAILEYS CORNER,Populated Place,Jasper,73,41.0708722,-86.998355,2/14/79,
430412,Bainbridge,BAINBRIDGE,Populated Place,Putnam,133,39.761157,-86.8119523,2/14/79,3/20/08
430414,Bainter Town,BAINTER TOWN,Populated Place,Elkhart,39,41.5169936,-85.8172148,2/14/79,
446727,Baker,BAKER,Populated Place,Sullivan,153,39.1305978,-87.3125167,10/1/82,
430439,Bakers Corner,BAKERS CORNER,Populated Place,Hamilton,57,40.1305928,-86.1374898,2/14/79,
430440,Bakertown,BAKERTOWN,Populated Place,Noble,113,41.3664375,-85.3572,2/14/79,
430443,Balbec,BALBEC,Populated Place,Jay,75,40.5308784,-85.1488595,2/14/79,
450648,Bald Knobs,BALD KNOBS,Populated Place,Jackson,71,39.020051,-86.1705416,2/14/79,
430450,Baldridge,BALDRIDGE,Populated Place,Sullivan,153,39.2230962,-87.3722409,2/14/79,
452107,Baldwin Heights,BALDWIN HEIGHTS,Populated Place,Gibson,51,38.3414346,-87.5714113,10/1/82,
430466,Ballstown,BALLSTOWN,Populated Place,Ripley,137,39.2506071,-85.2441284,2/14/79,5/10/14
430471,Bandmill,BANDMILL,Populated Place,Knox,83,38.5383807,-87.6028019,2/14/79,
450651,Bandon,BANDON,Populated Place,Perry,123,38.1372822,-86.6002618,2/14/79,
452151,Banner Mills,BANNER MILLS,Populated Place,Parke,121,39.9328205,-87.1011212,10/1/82,
430474,Banning Corner,BANNING CORNER,Populated Place,Warren,171,40.3664255,-87.162511,2/14/79,
430476,Banquo,BANQUO,Populated Place,Huntington,69,40.6964322,-85.6197,2/14/79,
430477,Banta,BANTA,Populated Place,Morgan,109,39.5239368,-86.2502676,2/14/79,
430480,Bar-Barry Heights,BAR-BARRY HEIGHTS,Populated Place,Tippecanoe,157,40.456146,-86.9158439,2/14/79,
430481,Barbee,BARBEE,Populated Place,Kosciusko,85,41.290879,-85.7122093,2/14/79,
430483,Barbersville,BARBERSVILLE,Populated Place,Jefferson,77,38.9058906,-85.2807908,2/14/79,
430485,Barce,BARCE,Populated Place,Benton,7,40.6208713,-87.2766844,2/14/79,5/10/14
430487,Bargersville,BARGERSVILLE,Populated Place,Johnson,81,39.5208818,-86.1677657,2/14/79,5/10/14
430495,Barnard,BARNARD,Populated Place,Putnam,133,39.8486562,-86.7005608,2/14/79,5/10/14
430517,Barnhart Town,BARNHART TOWN,Populated Place,Vigo,167,39.5039248,-87.4355764,2/14/79,
430532,Barrett,BARRETT,Populated Place,Posey,129,38.2006011,-87.8694737,2/14/79,
430536,Barrick Corner,BARRICK CORNER,Populated Place,Clay,21,39.2561531,-87.0733452,2/14/79,
2106859,Barrington Ridge,BARRINGTON RIDGE,Populated Place,Hamilton,57,39.9611111,-86.0458333,2/16/07,
451683,Bartholomew County,BARTHOLOMEW COUNTY,Civil,Bartholomew,5,39.205973,-85.8976045,2/14/79,1/8/13
446743,Bartle,BARTLE,Populated Place,Washington,175,38.5603378,-85.8874703,10/1/82,
450655,Bartlettsville,BARTLETTSVILLE,Populated Place,Lawrence,93,38.9703275,-86.4419369,2/14/79,5/10/14
430552,Bartonia,BARTONIA,Populated Place,Randolph,135,40.1153245,-84.8510732,2/14/79,5/10/14
446741,Bartons Location,BARTONS LOCATION,Populated Place,Pike,125,38.5292151,-87.3394601,10/1/82,
430555,Bascom Corner,BASCOM CORNER,Populated Place,Ohio,115,38.9089489,-84.9685619,2/14/79,
430563,Bass Lake,BASS LAKE,Populated Place,Starke,149,41.2072635,-86.6019562,2/14/79,3/20/08
2393329,Bass Lake Census Designated Place,BASS LAKE CENSUS DESIGNATED PLACE,Census,Starke,149,41.2304048,-86.5844752,2/27/08,4/24/13
430566,Bass Station,BASS STATION,Populated Place,Starke,149,41.1853191,-86.6022336,2/14/79,
430573,Batesville,BATESVILLE,Populated Place,Ripley,137,39.3000511,-85.222184,2/14/79,3/20/08
430574,Bath,BATH,Populated Place,Franklin,47,39.5083848,-84.8624567,2/14/79,
430580,Battle Ground,BATTLE GROUND,Populated Place,Tippecanoe,157,40.5083685,-86.8416763,2/14/79,3/20/08
430586,Baugh City,BAUGH CITY,Populated Place,Warrick,173,38.0417106,-87.412511,2/14/79,
430592,Bayfield,BAYFIELD,Populated Place,Kosciusko,85,41.2747676,-85.7069312,2/14/79,
452269,Beal,BEAL,Populated Place,Knox,83,38.576714,-87.6300248,10/1/82,
446722,Beamer,BEAMER,Populated Place,Owen,119,39.3667102,-86.9375105,10/1/82,
430609,Beanblossom,BEANBLOSSOM,Populated Place,Brown,13,39.2669926,-86.2491572,2/14/79,
449617,Bear Branch,BEAR BRANCH,Populated Place,Ohio,115,38.9128367,-85.074953,2/14/79,
452017,Bear Wallow,BEAR WALLOW,Populated Place,Brown,13,39.3236587,-86.3688822,2/14/79,
430647,Beard,BEARD,Populated Place,Clinton,23,40.3736475,-86.4505545,2/14/79,5/10/14
430653,Beardstown,BEARDSTOWN,Populated Place,Pulaski,131,41.1380968,-86.6025106,2/14/79,
430660,Beatrice,BEATRICE,Populated Place,Porter,127,41.426982,-87.1894768,2/14/79,
430665,Beattys Corner,BEATTYS CORNER,Populated Place,LaPorte,91,41.6222624,-86.8939171,2/14/79,
430668,Beatys Beach,BEATYS BEACH,Populated Place,LaGrange,87,41.6842171,-85.6035976,2/14/79,
430671,Beaver City,BEAVER CITY,Populated Place,Newton,111,40.9069801,-87.4155833,2/14/79,
430677,Beaver Dam,BEAVER DAM,Populated Place,Kosciusko,85,41.0861547,-86.0133281,2/14/79,
450666,Becks Grove,BECKS GROVE,Populated Place,Brown,13,39.0792177,-86.1166543,2/14/79,
449618,Becks Mill,BECKS MILL,Populated Place,Washington,175,38.5353362,-86.1555344,2/14/79,5/10/14
430695,Beckville,BECKVILLE,Populated Place,Montgomery,107,40.0105984,-86.7097278,2/14/79,
450667,Bedford,BEDFORD,Populated Place,Lawrence,93,38.8611619,-86.4872149,2/14/79,3/20/08
430706,Bee Ridge,BEE RIDGE,Populated Place,Clay,21,39.5369845,-87.1694603,2/14/79,
430711,Beech Brook,BEECH BROOK,Populated Place,Shelby,145,39.55227,-85.7977575,2/14/79,
430718,Beech Grove,BEECH GROVE,Populated Place,Morgan,109,39.5172696,-86.4463842,2/14/79,
430719,Beech Grove,BEECH GROVE,Populated Place,Marion,97,39.7219884,-86.0899847,2/14/79,3/20/08
450671,Beechwood,BEECHWOOD,Populated Place,Crawford,25,38.2067299,-86.4244239,2/14/79,
430740,Beehunter,BEEHUNTER,Populated Place,Greene,55,38.9561568,-87.1211221,2/14/79,
430744,Beesons,BEESONS,Populated Place,Wayne,177,39.7217136,-85.1330197,2/14/79,
430747,Behlmer Corner,BEHLMER CORNER,Populated Place,Ripley,137,39.2025528,-85.1696818,2/14/79,
430752,Belknap,BELKNAP,Populated Place,Vanderburgh,163,37.9833756,-87.6880755,2/14/79,
430758,Bell Center,BELL CENTER,Populated Place,White,181,40.8686511,-86.6391756,2/14/79,
430769,Bell Rohr Park,BELL ROHR PARK,Populated Place,Kosciusko,85,41.3317128,-85.7811007,2/14/79,
430774,Belle Arbor,BELLE ARBOR,Populated Place,Marion,97,39.7203215,-85.987482,2/14/79,
430776,Belle Union,BELLE UNION,Populated Place,Putnam,133,39.5731022,-86.7061162,2/14/79,
430779,Belleview,BELLEVIEW,Populated Place,Jefferson,77,38.855891,-85.3780147,2/14/79,5/10/14
430780,Belleville,BELLEVILLE,Populated Place,Hendricks,63,39.6772684,-86.4883305,2/14/79,
430777,Bellfountain,BELLFOUNTAIN,Populated Place,Jay,75,40.4333791,-84.8635757,2/14/79,
430781,Bellmore,BELLMORE,Populated Place,Parke,121,39.7592093,-87.1052905,2/14/79,5/10/14
430784,Belmont,BELMONT,Populated Place,Brown,13,39.1519929,-86.3472139,2/14/79,
430785,Belmont,BELMONT,Populated Place,Henry,65,39.921713,-85.3496913,2/14/79,
448343,Belmont,BELMONT,Populated Place,Marion,97,39.7522659,-86.1949875,10/1/82,
430788,Belshaw,BELSHAW,Populated Place,Lake,89,41.2564242,-87.4533678,2/14/79,
446682,Ben Davis,BEN DAVIS,Populated Place,Marion,97,39.7480998,-86.2694341,10/1/82,
430804,Benefiel Corner,BENEFIEL CORNER,Populated Place,Sullivan,153,39.1283749,-87.4089083,2/14/79,
430805,Bengal,BENGAL,Populated Place,Shelby,145,39.4733834,-85.9227616,2/14/79,
430806,Benham,BENHAM,Populated Place,Ripley,137,38.983667,-85.2502355,2/14/79,5/10/14
430817,Bennetts Switch,BENNETTS SWITCH,Populated Place,Miami,103,40.5850393,-86.1127699,2/14/79,5/10/14
430818,Bennettsville,BENNETTSVILLE,Populated Place,Clark,19,38.4256201,-85.8085771,2/14/79,
430820,Bennington,BENNINGTON,Populated Place,Switzerland,155,38.8589483,-85.1405093,2/14/79,
430828,Benton,BENTON,Populated Place,Elkhart,39,41.509216,-85.7611016,2/14/79,5/10/14
450403,Benton County,BENTON COUNTY,Civil,Benton,7,40.6062585,-87.310906,2/14/79,1/8/13
430829,Benton House,BENTON HOUSE,Populated Place,Marion,97,39.764765,-86.0763732,2/14/79,
430830,Bentonville,BENTONVILLE,Populated Place,Fayette,41,39.7453242,-85.1941317,2/14/79,5/10/14
430833,Benwood,BENWOOD,Populated Place,Clay,21,39.5611524,-87.1141815,2/14/79,
2106848,Berkley Ridge,BERKLEY RIDGE,Populated Place,Hamilton,57,39.9444444,-86.0291667,2/16/07,
430846,Berlien,BERLIEN,Populated Place,Steuben,151,41.6367169,-84.8766268,2/14/79,
430849,Berne,BERNE,Populated Place,Adams,1,40.6578242,-84.9519115,2/14/79,6/30/11
430859,Bethany,BETHANY,Populated Place,Bartholomew,5,39.1739398,-86.0652702,2/14/79,
430860,Bethany,BETHANY,Populated Place,Parke,121,39.8542087,-87.147234,2/14/79,
430861,Bethany,BETHANY,Populated Place,Morgan,109,39.5325474,-86.3758266,2/14/79,3/20/08
430879,Bethel,BETHEL,Populated Place,Wayne,177,39.9867145,-84.8302381,2/14/79,
430880,Bethel,BETHEL,Populated Place,Delaware,35,40.2500421,-85.5338617,2/14/79,
430961,Bethel Village,BETHEL VILLAGE,Populated Place,Bartholomew,5,39.1519963,-85.9247102,2/14/79,
449478,Bethevan,BETHEVAN,Populated Place,Grant,53,40.5250404,-85.6333097,10/1/82,
430971,Bethlehem,BETHLEHEM,Populated Place,Clark,19,38.5392299,-85.420514,2/14/79,
430992,Between-The-Lakes Park,BETWEEN-THE-LAKES PARK,Populated Place,Kosciusko,85,41.3247683,-85.7366548,2/14/79,
430997,Beverly Hill,BEVERLY HILL,Populated Place,Porter,127,41.5489285,-86.9855853,2/14/79,
430998,Beverly Shores,BEVERLY SHORES,Populated Place,Porter,127,41.6925381,-86.9775319,2/14/79,3/20/08
431003,Bicknell,BICKNELL,Populated Place,Knox,83,38.7742136,-87.3077936,2/14/79,5/10/14
446832,Big Four Yard,BIG FOUR YARD,Populated Place,Hendricks,63,39.7611557,-86.3583264,10/1/82,
431037,Big Hill,BIG HILL,Populated Place,Fulton,49,41.0453201,-86.1958324,2/14/79,
431066,Big Springs,BIG SPRINGS,Populated Place,Boone,11,40.0703161,-86.2605496,2/14/79,
449083,Billie Creek Village,BILLIE CREEK VILLAGE,Populated Place,Parke,121,39.7614298,-87.2019582,10/1/82,
431080,Billingsville,BILLINGSVILLE,Populated Place,Union,161,39.5558837,-84.9096808,2/14/79,
431086,Billtown,BILLTOWN,Populated Place,Clay,21,39.5100396,-87.1861275,2/14/79,
431088,Billville,BILLVILLE,Populated Place,Clay,21,39.5036519,-87.1255712,2/14/79,
431097,Bippus,BIPPUS,Populated Place,Huntington,69,40.9442119,-85.6238696,2/14/79,
431100,Birchim,BIRCHIM,Populated Place,LaPorte,91,41.7103218,-86.6027986,2/14/79,
450684,Birdseye,BIRDSEYE,Populated Place,Dubois,37,38.3167237,-86.6958229,2/14/79,3/20/08
431104,Birmingham,BIRMINGHAM,Populated Place,Miami,103,40.9378201,-86.1094398,2/14/79,
448389,Birmingham,BIRMINGHAM,Populated Place,Tippecanoe,157,40.4686463,-86.8527872,10/1/82,
431138,Black Oak,BLACK OAK,Populated Place,Daviess,27,38.6625491,-87.0811193,2/14/79,
449619,Black Oak,BLACK OAK,Populated Place,Lake,89,41.5661472,-87.3936498,2/14/79,
452020,Black Point,BLACK POINT,Populated Place,Kosciusko,85,41.4050478,-85.6835983,2/14/79,
431141,Black Rock,BLACK ROCK,Populated Place,Warren,171,40.3678141,-87.0969551,2/14/79,
450404,Blackford County,BLACKFORD COUNTY,Civil,Blackford,9,40.4736006,-85.3248199,2/14/79,1/8/13
431150,Blackhawk,BLACKHAWK,Populated Place,Vigo,167,39.3089288,-87.300295,2/14/79,
431151,Blackhawk Beach,BLACKHAWK BEACH,Populated Place,Porter,127,41.5178172,-87.0411416,2/14/79,
431153,Blackiston Mill,BLACKISTON MILL,Populated Place,Floyd,43,38.3356233,-85.7980201,2/14/79,
447327,Blackiston Village,BLACKISTON VILLAGE,Populated Place,Clark,19,38.3320123,-85.7930199,10/1/82,
431159,Blaine,BLAINE,Populated Place,Jay,75,40.4025446,-85.05608,2/14/79,4/11/14
431168,Blairsville,BLAIRSVILLE,Populated Place,Posey,129,38.0789322,-87.7619689,2/14/79,4/11/14
452150,Blakesburg,BLAKESBURG,Populated Place,Putnam,133,39.8072671,-86.9100093,10/1/82,
431177,Blanford,BLANFORD,Populated Place,Vermillion,165,39.6650358,-87.5205765,2/14/79,1/29/11
2629869,Blanford Census Designated Place,BLANFORD CENSUS DESIGNATED PLACE,Census,Vermillion,165,39.6669999,-87.5202683,8/30/10,4/25/13
431188,Blocher,BLOCHER,Populated Place,Scott,143,38.718114,-85.6566311,2/14/79,
431196,Bloods Wood Crossing,BLOODS WOOD CROSSING,Populated Place,Knox,83,38.5386585,-87.6303028,2/14/79,
431197,Bloomer,BLOOMER,Populated Place,Madison,95,40.0839295,-85.7680333,2/14/79,
431198,Bloomfield,BLOOMFIELD,Populated Place,Jay,75,40.5117123,-84.9738567,2/14/79,
431199,Bloomfield,BLOOMFIELD,Populated Place,Spencer,147,38.0244941,-87.0963881,2/14/79,
431200,Bloomfield,BLOOMFIELD,Populated Place,Greene,55,39.0269903,-86.9375068,2/14/79,6/30/11
431201,Blooming Grove,BLOOMING GROVE,Populated Place,Franklin,47,39.5022719,-85.0646838,2/14/79,
431202,Bloomingdale,BLOOMINGDALE,Populated Place,Parke,121,39.8333736,-87.2497354,2/14/79,4/11/14
431205,Bloomingport,BLOOMINGPORT,Populated Place,Randolph,135,40.0269904,-84.9946863,2/14/79,
431207,Bloomington,BLOOMINGTON,Populated Place,Monroe,105,39.165325,-86.5263857,2/14/79,4/11/14
431210,Blountsville,BLOUNTSVILLE,Populated Place,Henry,65,40.0600458,-85.2402442,2/14/79,4/11/14
431213,Blue,BLUE,Populated Place,Ohio,115,38.9250593,-85.0046739,2/14/79,
449620,Blue Lick,BLUE LICK,Populated Place,Clark,19,38.5083952,-85.8046891,2/14/79,
431235,Blue Ridge,BLUE RIDGE,Populated Place,Shelby,145,39.5192148,-85.6355309,2/14/79,
431237,Blue River,BLUE RIVER,Populated Place,Washington,175,38.5300601,-85.9394162,2/14/79,
446650,Bluecast,BLUECAST,Populated Place,Allen,3,41.1542161,-84.8694078,10/1/82,
2106846,Bluestone,BLUESTONE,Populated Place,Hamilton,57,39.9475,-86.0413889,2/16/07,
2107802,Bluff Acres,BLUFF ACRES,Populated Place,Johnson,81,39.6,-86.2191667,2/26/07,
431260,Bluff Creek,BLUFF CREEK,Populated Place,Johnson,81,39.5575475,-86.2208223,2/14/79,4/11/14
431262,Bluff Point,BLUFF POINT,Populated Place,Jay,75,40.345878,-84.9771896,2/14/79,
431263,Bluffs,BLUFFS,Populated Place,Morgan,109,39.568936,-86.2511008,2/14/79,
431264,Bluffton,BLUFFTON,Populated Place,Wells,179,40.7386579,-85.1716368,2/14/79,3/20/08
431268,Board Park,BOARD PARK,Populated Place,Putnam,133,39.5928244,-86.6700037,2/14/79,
431275,Bobtown,BOBTOWN,Populated Place,Jackson,71,39.0194968,-85.9460921,2/14/79,
431294,Boggstown,BOGGSTOWN,Populated Place,Shelby,145,39.5631037,-85.9163709,2/14/79,
431296,Bogle Corner,BOGLE CORNER,Populated Place,Clay,21,39.1775423,-87.1847359,2/14/79,
431306,Bolivar,BOLIVAR,Populated Place,Wabash,169,40.9642112,-85.7874861,2/14/79,
450694,Bonds,BONDS,Populated Place,Orange,117,38.6811633,-86.6294386,2/14/79,
2514873,Bonfiglio's Mobile Home Park,BONFIGLIO'S MOBILE HOME PARK,Populated Place,Lake,89,41.5972222,-87.4619444,12/16/08,
431321,Bonnell,BONNELL,Populated Place,Dearborn,29,39.1683882,-84.9741218,2/14/79,
431324,Bonneyville Mills,BONNEYVILLE MILLS,Populated Place,Elkhart,39,41.7181059,-85.7652703,2/14/79,
431325,Bono,BONO,Populated Place,Lawrence,93,38.7314426,-86.3210971,2/14/79,
431326,Bono,BONO,Populated Place,Vermillion,165,39.7603143,-87.4939082,2/14/79,4/11/14
450405,Boone County,BOONE COUNTY,Civil,Boone,11,40.0508014,-86.4686962,2/14/79,1/8/13
449621,Boone Grove,BOONE GROVE,Populated Place,Porter,127,41.3547602,-87.1294742,2/14/79,4/11/14
431342,Boonville,BOONVILLE,Populated Place,Warrick,173,38.0492132,-87.2741723,2/14/79,3/20/08
431353,Borden,BORDEN,Populated Place,Clark,19,38.4667284,-85.9458044,2/14/79,3/20/08
431367,Boston,BOSTON,Populated Place,Wayne,177,39.7411601,-84.8519034,2/14/79,3/20/08
431369,Boston Corner,BOSTON CORNER,Populated Place,Allen,3,40.9483814,-84.9002427,2/14/79,
431372,Boswell,BOSWELL,Populated Place,Benton,7,40.5211476,-87.3783507,2/14/79,3/20/08
431379,Boundary City,BOUNDARY CITY,Populated Place,Jay,75,40.3444896,-84.9219103,2/14/79,
431382,Bourbon,BOURBON,Populated Place,Marshall,99,41.2956002,-86.1163889,2/14/79,3/20/08
431396,Bowers,BOWERS,Populated Place,Montgomery,107,40.156983,-86.7247279,2/14/79,4/11/14
431401,Bowerstown,BOWERSTOWN,Populated Place,Huntington,69,40.8886571,-85.4424751,2/14/79,
431404,Bowling Green,BOWLING GREEN,Populated Place,Clay,21,39.3830983,-87.0116791,2/14/79,4/11/14
431405,Bowman,BOWMAN,Populated Place,Pike,125,38.4964374,-87.3469602,2/14/79,
431406,Bowman Acres,BOWMAN ACRES,Populated Place,Hancock,59,39.7619876,-85.7674782,2/14/79,
431418,Boxley,BOXLEY,Populated Place,Hamilton,57,40.1661483,-86.1755472,2/14/79,
431420,Boyd,BOYD,Populated Place,Rush,139,39.7186563,-85.5510851,2/14/79,
431430,Boyleston,BOYLESTON,Populated Place,Clinton,23,40.2864255,-86.3947214,2/14/79,4/11/14
431433,Bracken,BRACKEN,Populated Place,Huntington,69,40.9867121,-85.6238701,2/14/79,
431434,Bradfield Corner,BRADFIELD CORNER,Populated Place,Parke,121,39.7322614,-87.2989047,2/14/79,
431435,Bradford,BRADFORD,Populated Place,Harrison,61,38.3678417,-86.0619169,2/14/79,
2107231,Bradford Court,BRADFORD COURT,Populated Place,Hamilton,57,39.9455556,-85.9444444,2/16/07,
446879,Bramble,BRAMBLE,Populated Place,Martin,101,38.7789379,-86.9094486,10/1/82,4/11/14
450702,Branchville,BRANCHVILLE,Populated Place,Perry,123,38.1636715,-86.5797058,2/14/79,4/11/14
450705,Braxtons Siding,BRAXTONS SIDING,Populated Place,Orange,117,38.5592216,-86.4880438,2/14/79,
431458,Braysville,BRAYSVILLE,Populated Place,Owen,119,39.2117117,-86.7744498,2/14/79,
431459,Braysville,BRAYSVILLE,Populated Place,Dearborn,29,39.2881097,-84.8696758,2/14/79,
431461,Braytown,BRAYTOWN,Populated Place,Switzerland,155,38.7306174,-85.1585638,2/14/79,
431462,Brazil,BRAZIL,Populated Place,Clay,21,39.523652,-87.1250154,2/14/79,4/11/14
2107256,Breakwater,BREAKWATER,Populated Place,Hamilton,57,39.9494444,-85.9352778,2/16/07,
431467,Breckenridge,BRECKENRIDGE,Populated Place,Harrison,61,38.2178464,-86.0330241,2/14/79,
431474,Breezy Point,BREEZY POINT,Populated Place,Carroll,15,40.6919828,-86.7530665,2/14/79,
431479,Bremen,BREMEN,Populated Place,Marshall,99,41.446436,-86.148058,2/14/79,4/11/14
2514859,Bremerton Mobile Home Park,BREMERTON MOBILE HOME PARK,Populated Place,Lake,89,41.5319444,-87.4102778,12/16/08,
431480,Brems,BREMS,Populated Place,Starke,149,41.3392084,-86.6975168,2/14/79,
431481,Brendan Wood,BRENDAN WOOD,Populated Place,Boone,11,40.0672629,-86.4688899,2/14/79,
431482,Brendonwood,BRENDONWOOD,Populated Place,Marion,97,39.8578181,-86.0638737,2/14/79,
431483,Brent Woods,BRENT WOODS,Populated Place,Shelby,145,39.5383812,-85.7569233,2/14/79,
2107803,Brentridge,BRENTRIDGE,Populated Place,Johnson,81,39.5841667,-86.1938889,2/26/07,
431486,Brentwood,BRENTWOOD,Populated Place,Madison,95,40.0975413,-85.7152545,2/14/79,
2107784,Brentwood,BRENTWOOD,Populated Place,Johnson,81,39.6027778,-86.1827778,2/26/07,
431491,Bretzville,BRETZVILLE,Populated Place,Dubois,37,38.2994989,-86.8730503,2/14/79,4/11/14
431498,Brewersville,BREWERSVILLE,Populated Place,Jennings,79,39.0844975,-85.6116373,2/14/79,4/11/14
431504,Briarwood,BRIARWOOD,Populated Place,Morgan,109,39.5508803,-86.5066639,2/14/79,
431505,Brice,BRICE,Populated Place,Jay,75,40.4181012,-84.8963544,2/14/79,
449622,Brick Chapel,BRICK CHAPEL,Populated Place,Putnam,133,39.7117122,-86.8691759,2/14/79,
431517,Bridgeport,BRIDGEPORT,Populated Place,Harrison,61,38.176181,-85.9063539,2/14/79,
431518,Bridgeport,BRIDGEPORT,Populated Place,Marion,97,39.732267,-86.3172136,2/14/79,
431520,Bridgeton,BRIDGETON,Populated Place,Parke,121,39.6450406,-87.1775148,2/14/79,
2107224,Bridgewater,BRIDGEWATER,Populated Place,Hamilton,57,39.9297222,-85.9452778,2/16/07,
2101377,Bridlebourne,BRIDLEBOURNE,Populated Place,Hamilton,57,39.9472222,-86.2194444,2/1/07,8/1/07
431523,Brierwood Hills,BRIERWOOD HILLS,Populated Place,Allen,3,41.0553257,-85.2341392,2/14/79,
431524,Briggs,BRIGGS,Populated Place,Whitley,183,41.085602,-85.4702558,2/14/79,
431525,Bright,BRIGHT,Populated Place,Dearborn,29,39.2183885,-84.8560633,2/14/79,3/20/08
2393348,Bright Census Designated Place,BRIGHT CENSUS DESIGNATED PLACE,Census,Dearborn,29,39.2254278,-84.8613086,2/27/08,4/24/13
431527,Brighton,BRIGHTON,Populated Place,LaGrange,87,41.7222725,-85.3110874,2/14/79,
452202,Brightwood (historical),BRIGHTWOOD (HISTORICAL),Populated Place,Marion,97,39.8036531,-86.1097079,10/1/82,
431529,Brimfield,BRIMFIELD,Populated Place,Noble,113,41.4542161,-85.3980348,2/14/79,
452184,Brimstone Corners,BRIMSTONE CORNERS,Populated Place,Washington,175,38.7372763,-86.2644287,10/1/82,
431531,Bringhurst,BRINGHURST,Populated Place,Carroll,15,40.5253139,-86.5249984,2/14/79,4/11/14
431533,Brisco,BRISCO,Populated Place,Warren,171,40.4111477,-87.3583482,2/14/79,
431536,Bristol,BRISTOL,Populated Place,Elkhart,39,41.721439,-85.8174946,2/14/79,4/11/14
450712,Bristow,BRISTOW,Populated Place,Perry,123,38.1400574,-86.721655,2/14/79,
2107251,Britton Ridge,BRITTON RIDGE,Populated Place,Hamilton,57,39.9752778,-85.9916667,2/16/07,
447638,Broad Park,BROAD PARK,Populated Place,Putnam,133,39.5858799,-86.669448,10/1/82,
449481,Broad Ripple,BROAD RIPPLE,Populated Place,Marion,97,39.8667074,-86.1416541,10/1/82,
452112,Broad Ripple,BROAD RIPPLE,Populated Place,Marion,97,39.8667073,-86.1305426,10/1/82,
431548,Broadmoor,BROADMOOR,Populated Place,Marion,97,39.8489306,-86.2141561,2/14/79,
431549,Broadview,BROADVIEW,Populated Place,Monroe,105,39.1397696,-86.5383303,2/14/79,
2107804,Brockton Manor,BROCKTON MANOR,Populated Place,Johnson,81,39.59,-86.1855556,2/26/07,
450713,Bromer,BROMER,Populated Place,Orange,117,38.593667,-86.335818,2/14/79,
431563,Brook,BROOK,Populated Place,Newton,111,40.8664258,-87.3636368,2/14/79,5/12/14
431570,Brookfield,BROOKFIELD,Populated Place,Shelby,145,39.6378239,-85.9427597,2/14/79,
431571,Brookhaven,BROOKHAVEN,Populated Place,Grant,53,40.5197627,-85.6158092,2/14/79,
431572,Brooklyn,BROOKLYN,Populated Place,Morgan,109,39.5392141,-86.3691598,2/14/79,3/20/08
448351,Brooklyn Heights,BROOKLYN HEIGHTS,Populated Place,Marion,97,39.8203201,-86.2091556,10/1/82,
431575,Brookmoor,BROOKMOOR,Populated Place,Morgan,109,39.567547,-86.3747155,2/14/79,
452115,Brooks,BROOKS,Populated Place,Hamilton,57,39.9383723,-85.9191482,10/1/82,
2107228,Brooks Crossing,BROOKS CROSSING,Populated Place,Hamilton,57,39.9422222,-85.9463889,2/16/07,
449623,Brooksburg,BROOKSBURG,Populated Place,Jefferson,77,38.7364499,-85.2435659,2/14/79,5/12/14
431582,Brookside Estates,BROOKSIDE ESTATES,Populated Place,Allen,3,41.1467155,-85.0791364,2/14/79,
431585,Brookston,BROOKSTON,Populated Place,White,181,40.6028144,-86.8672339,2/14/79,3/20/08
2107222,Brookston Place,BROOKSTON PLACE,Populated Place,Hamilton,57,39.9372222,-85.95,2/16/07,
431586,Brookville,BROOKVILLE,Populated Place,Franklin,47,39.4231065,-85.0127376,2/14/79,5/12/14
431587,Brookville Heights,BROOKVILLE HEIGHTS,Populated Place,Hancock,59,39.7244881,-85.9066473,2/14/79,
431589,Broom Hill,BROOM HILL,Populated Place,Clark,19,38.4489519,-85.8774685,2/14/79,
451684,Brown County,BROWN COUNTY,Civil,Brown,13,39.1962112,-86.2273748,2/14/79,1/8/13
431626,Brown Jug Corner,BROWN JUG CORNER,Populated Place,Vigo,167,39.2880961,-87.2589049,2/14/79,
449624,Browns Corner,BROWNS CORNER,Populated Place,Huntington,69,40.8150459,-85.4116405,2/14/79,11/19/14
431641,Browns Crossing,BROWNS CROSSING,Populated Place,Morgan,109,39.406436,-86.5055524,2/14/79,
431643,Browns Valley,BROWNS VALLEY,Populated Place,Montgomery,107,39.9030998,-86.9919539,2/14/79,
431646,Brownsburg,BROWNSBURG,Populated Place,Hendricks,63,39.8433769,-86.3977736,2/14/79,3/20/08
431647,Brownstown,BROWNSTOWN,Populated Place,Jackson,71,38.8789426,-86.0419247,2/14/79,3/20/08
450721,Brownstown,BROWNSTOWN,Populated Place,Crawford,25,38.3808917,-86.5030407,2/14/79,
431648,Brownsville,BROWNSVILLE,Populated Place,Union,161,39.6644924,-85.0046842,2/14/79,5/12/14
431655,Bruce Lake Station,BRUCE LAKE STATION,Populated Place,Fulton,49,41.0694862,-86.4147267,2/14/79,
431657,Bruceville,BRUCEVILLE,Populated Place,Knox,83,38.7594911,-87.4155739,2/14/79,5/12/14
431663,Brummitt Acres,BRUMMITT ACRES,Populated Place,Porter,127,41.6189274,-87.0169761,2/14/79,
431667,Brunerstown,BRUNERSTOWN,Populated Place,Putnam,133,39.652544,-86.9983456,2/14/79,
431671,Brunswick,BRUNSWICK,Populated Place,Clay,21,39.1969869,-87.1200124,2/14/79,
431672,Brunswick,BRUNSWICK,Populated Place,Lake,89,41.377813,-87.5080932,2/14/79,5/12/14
431693,Brushy Prairie,BRUSHY PRAIRIE,Populated Place,LaGrange,87,41.6417168,-85.2474744,2/14/79,
431698,Bryant,BRYANT,Populated Place,Jay,75,40.533379,-84.9638564,2/14/79,3/20/08
449625,Bryantsburg,BRYANTSBURG,Populated Place,Jefferson,77,38.8858905,-85.3744038,2/14/79,
450725,Bryantsville,BRYANTSVILLE,Populated Place,Lawrence,93,38.7686624,-86.5730498,2/14/79,
452123,Buchanan,BUCHANAN,Populated Place,Floyd,43,38.2161807,-85.8994097,10/1/82,
431708,Buchanan Corner,BUCHANAN CORNER,Populated Place,Clay,21,39.192542,-87.2033475,2/14/79,
449626,Buck Creek,BUCK CREEK,Populated Place,Tippecanoe,157,40.4878136,-86.7613963,2/14/79,1/29/11
2583446,Buck Creek Census Designated Place,BUCK CREEK CENSUS DESIGNATED PLACE,Census,Tippecanoe,157,40.4874504,-86.7621905,3/31/10,4/25/13
431742,Buckeye,BUCKEYE,Populated Place,Huntington,69,40.6911566,-85.3538612,2/14/79,
2107212,Bucks Creek,BUCKS CREEK,Populated Place,Hamilton,57,39.9288889,-85.9788889,2/16/07,
431754,Buckskin,BUCKSKIN,Populated Place,Gibson,51,38.2283794,-87.4119591,2/14/79,
431756,Bucktown,BUCKTOWN,Populated Place,Sullivan,153,38.9947665,-87.2600148,2/14/79,
431757,Bud,BUD,Populated Place,Johnson,81,39.4469934,-86.1758225,2/14/79,
431762,Buddha,BUDDHA,Populated Place,Lawrence,93,38.7919967,-86.4066562,2/14/79,
431763,Buena Vista,BUENA VISTA,Populated Place,Harrison,61,38.0589608,-85.9799649,2/14/79,
431764,Buena Vista,BUENA VISTA,Populated Place,Franklin,47,39.4389383,-85.2724643,2/14/79,
431765,Buena Vista,BUENA VISTA,Populated Place,Randolph,135,40.1206006,-85.0730218,2/14/79,
452229,Buenavista,BUENAVISTA,Populated Place,Monroe,105,39.033103,-86.6555555,10/1/82,
431769,Buffalo,BUFFALO,Populated Place,Ohio,115,39.0206143,-84.8838393,2/14/79,
431770,Buffalo,BUFFALO,Populated Place,White,181,40.8825397,-86.7452901,2/14/79,3/20/08
452118,Buffalo (historical),BUFFALO (HISTORICAL),Populated Place,Brown,13,39.0567176,-86.1449869,10/1/82,11/14/07
2393355,Buffalo Census Designated Place,BUFFALO CENSUS DESIGNATED PLACE,Census,White,181,40.8879868,-86.7374596,2/27/08,4/24/13
431777,Buffaloville,BUFFALOVILLE,Populated Place,Spencer,147,38.0975528,-86.9652732,2/14/79,
431779,Buffington,BUFFINGTON,Populated Place,Lake,89,41.637258,-87.4258739,2/14/79,
431782,Bufkin,BUFKIN,Populated Place,Posey,129,37.9878214,-87.8458587,2/14/79,
431797,Bullocktown,BULLOCKTOWN,Populated Place,Warrick,173,37.974769,-87.2227805,2/14/79,
431808,Bunker Hill,BUNKER HILL,Populated Place,Morgan,109,39.5664359,-86.4413842,2/14/79,
431809,Bunker Hill,BUNKER HILL,Populated Place,Fayette,41,39.6333809,-85.2124646,2/14/79,
446742,Bunker Hill,BUNKER HILL,Populated Place,Washington,175,38.5736708,-85.8944151,10/1/82,
449627,Bunker Hill,BUNKER HILL,Populated Place,Miami,103,40.6603181,-86.1027701,2/14/79,3/20/08
2106851,Burberry Place,BURBERRY PLACE,Populated Place,Hamilton,57,39.95,-86.0297222,2/16/07,
431827,Burdick,BURDICK,Populated Place,Porter,127,41.6011503,-86.972808,2/14/79,4/10/14
431829,Burge Terrace,BURGE TERRACE,Populated Place,Marion,97,39.7433763,-85.9963709,2/14/79,
431833,Burket,BURKET,Populated Place,Kosciusko,85,41.1553219,-85.9686053,2/14/79,3/20/08
431841,Burlington,BURLINGTON,Populated Place,Carroll,15,40.4803144,-86.3947188,2/14/79,3/20/08
431842,Burlington Beach,BURLINGTON BEACH,Populated Place,Porter,127,41.5058727,-87.0453081,2/14/79,
431848,Burnett,BURNETT,Populated Place,Vigo,167,39.5428158,-87.2955734,2/14/79,
431852,Burnettsville,BURNETTSVILLE,Populated Place,White,181,40.7611507,-86.5936179,2/14/79,6/30/11
431853,Burney,BURNEY,Populated Place,Decatur,31,39.3172726,-85.6402546,2/14/79,
431854,Burns City,BURNS CITY,Populated Place,Martin,101,38.8225486,-86.8869483,2/14/79,1/29/11
2583447,Burns City Census Designated Place,BURNS CITY CENSUS DESIGNATED PLACE,Census,Martin,101,38.8202635,-86.89253,3/31/10,4/25/13
449809,Burns Harbor,BURNS HARBOR,Populated Place,Porter,127,41.6258708,-87.1333676,2/14/79,3/20/08
431858,Burnsville,BURNSVILLE,Populated Place,Bartholomew,5,39.1728298,-85.7402571,2/14/79,
449628,Burr Oak,BURR OAK,Populated Place,Marshall,99,41.2564314,-86.4152852,2/14/79,
450522,Burr Oak,BURR OAK,Populated Place,Noble,113,41.3231034,-85.4330352,2/14/79,
431874,Burrows,BURROWS,Populated Place,Carroll,15,40.6767053,-86.5075019,2/14/79,4/10/14
431891,Bushrod,BUSHROD,Populated Place,Greene,55,38.9689345,-87.1088996,2/14/79,
431894,Busseron,BUSSERON,Populated Place,Knox,83,38.8356012,-87.4491861,2/14/79,
431897,Butler,BUTLER,Populated Place,DeKalb,33,41.4297727,-84.8713502,2/14/79,4/10/14
431900,Butler Center,BUTLER CENTER,Populated Place,DeKalb,33,41.3083825,-85.1366382,2/14/79,
431906,Butlerville,BUTLERVILLE,Populated Place,Jennings,79,39.0344983,-85.5127432,2/14/79,1/29/11
2587013,Butlerville Census Designated Place,BUTLERVILLE CENSUS DESIGNATED PLACE,Census,Jennings,79,39.0325423,-85.5131698,6/10/10,4/25/13
452025,Buttermilk Point,BUTTERMILK POINT,Populated Place,Kosciusko,85,41.3772696,-85.6741534,2/14/79,
431925,Byrneville,BYRNEVILLE,Populated Place,Harrison,61,38.3275653,-86.0435821,2/14/79,
431926,Byron,BYRON,Populated Place,Parke,121,39.9036537,-87.1055662,2/14/79,
431927,Byron,BYRON,Populated Place,LaPorte,91,41.6561548,-86.6247427,2/14/79,4/10/14
431929,C and C Beach,C AND C BEACH,Populated Place,Carroll,15,40.7033718,-86.7564001,2/14/79,
449629,Caborn,CABORN,Populated Place,Posey,129,37.9705985,-87.7919678,2/14/79,
431936,Cadiz,CADIZ,Populated Place,Henry,65,39.9514349,-85.4866409,2/14/79,3/20/08
431940,Cagle Mill,CAGLE MILL,Populated Place,Putnam,133,39.4872662,-86.9397341,2/14/79,
431946,Cairo,CAIRO,Populated Place,Tippecanoe,157,40.5408685,-86.9247344,2/14/79,
452223,Calcutta,CALCUTTA,Populated Place,Clay,21,39.6042091,-87.0694582,10/1/82,
449812,Cale,CALE,Populated Place,Martin,101,38.7958829,-86.7513884,2/14/79,4/10/14
452893,Caledonia (historical),CALEDONIA (HISTORICAL),Populated Place,Sullivan,153,39.0989314,-87.3350173,2/14/79,
452191,Calloway Station (historical),CALLOWAY STATION (HISTORICAL),Populated Place,Jefferson,77,38.8403353,-85.462183,10/1/82,10/17/09
431992,Calvertville,CALVERTVILLE,Populated Place,Greene,55,39.1164339,-86.9038959,2/14/79,4/10/14
431998,Cambria,CAMBRIA,Populated Place,Clinton,23,40.3658694,-86.5591682,2/14/79,
431999,Cambridge City,CAMBRIDGE CITY,Populated Place,Wayne,177,39.8125465,-85.1716315,2/14/79,4/10/14
432000,Camby,CAMBY,Populated Place,Marion,97,39.6625457,-86.3166582,2/14/79,
432002,Camden,CAMDEN,Populated Place,Carroll,15,40.6086485,-86.5400013,2/14/79,3/20/08
2515248,Camelot Manor Estates,CAMELOT MANOR ESTATES,Populated Place,Porter,127,41.545,-87.2161111,12/19/08,
432004,Cammack,CAMMACK,Populated Place,Delaware,35,40.2097652,-85.4924725,2/14/79,
432012,Camp Brosend,CAMP BROSEND,Populated Place,Warrick,173,37.9644883,-87.3958421,2/14/79,
432032,Camp Flat Rock,CAMP FLAT ROCK,Populated Place,Shelby,145,39.3969942,-85.7472027,2/14/79,
432060,Camp Roberts,CAMP ROBERTS,Populated Place,Brown,13,39.1783828,-86.1936016,2/14/79,
432066,Camp Shor,CAMP SHOR,Populated Place,Ohio,115,38.9981151,-84.849116,2/14/79,
432082,Campbell Corner,CAMPBELL CORNER,Populated Place,Sullivan,153,39.1428192,-87.4089084,2/14/79,
449630,Campbellsburg,CAMPBELLSBURG,Populated Place,Washington,175,38.6514445,-86.2610944,2/14/79,3/20/08
432088,Campbelltown,CAMPBELLTOWN,Populated Place,Pike,125,38.4214384,-87.2400104,2/14/79,
432093,Canaan,CANAAN,Populated Place,Jefferson,77,38.8667247,-85.2957906,2/14/79,1/29/11
2587014,Canaan Census Designated Place,CANAAN CENSUS DESIGNATED PLACE,Census,Jefferson,77,38.8661068,-85.2995347,6/10/10,4/25/13
432102,Candleglo Village,CANDLEGLO VILLAGE,Populated Place,Shelby,145,39.5575477,-85.7919239,2/14/79,
449631,Cannelburg,CANNELBURG,Populated Place,Daviess,27,38.6697717,-86.9983389,2/14/79,3/20/08
450757,Cannelton,CANNELTON,Populated Place,Perry,123,37.9114446,-86.7444321,2/14/79,4/10/14
432115,Cantaloupe,CANTALOUPE,Populated Place,Knox,83,38.5314362,-87.5194661,2/14/79,
432116,Canton,CANTON,Populated Place,Washington,175,38.6239466,-86.0346983,2/14/79,
432118,Cape Sandy,CAPE SANDY,Populated Place,Crawford,25,38.1508979,-86.3708106,2/14/79,
432119,Capehart,CAPEHART,Populated Place,Daviess,27,38.7456033,-87.1941795,2/14/79,
432123,Carbon,CARBON,Populated Place,Clay,21,39.5978193,-87.1186256,2/14/79,4/10/14
432124,Carbondale,CARBONDALE,Populated Place,Warren,171,40.3600367,-87.3477916,2/14/79,
432127,Cardonia,CARDONIA,Populated Place,Clay,21,39.561708,-87.1189038,2/14/79,4/10/14
452257,Carefree,CAREFREE,Populated Place,Crawford,25,38.2517307,-86.3513671,10/1/82,
2107216,Carefree Estates,CAREFREE ESTATES,Populated Place,Hamilton,57,39.9327778,-85.9722222,2/16/07,
432132,Carlisle,CARLISLE,Populated Place,Sullivan,153,38.9683772,-87.4055745,2/14/79,3/20/08
432134,Carlos,CARLOS,Populated Place,Randolph,135,40.026435,-85.0344088,2/14/79,4/10/14
432143,Carmel,CARMEL,Populated Place,Hamilton,57,39.9783711,-86.1180435,2/14/79,3/20/08
452429,Carmel (historical),CARMEL (HISTORICAL),Populated Place,LaPorte,91,41.4806013,-86.4041769,7/1/94,
432160,Carp,CARP,Populated Place,Owen,119,39.3850457,-86.7608397,2/14/79,
432163,Carpentersville,CARPENTERSVILLE,Populated Place,Putnam,133,39.8056011,-86.8055632,2/14/79,6/30/11
432174,Carriage Estates,CARRIAGE ESTATES,Populated Place,Hancock,59,39.7375434,-85.8938692,2/14/79,
450406,Carroll County,CARROLL COUNTY,Civil,Carroll,15,40.5828586,-86.5634841,2/14/79,1/8/13
432178,Carrollton,CARROLLTON,Populated Place,Carroll,15,40.5178147,-86.391941,2/14/79,
434493,Carrollton,CARROLLTON,Populated Place,Hancock,59,39.7055999,-85.8208126,2/14/79,
449632,Cartersburg,CARTERSBURG,Populated Place,Hendricks,63,39.698657,-86.4636075,2/14/79,
432194,Carthage,CARTHAGE,Populated Place,Rush,139,39.7383781,-85.5719189,2/14/79,3/20/08
432202,Carwood,CARWOOD,Populated Place,Clark,19,38.4483965,-85.863857,2/14/79,4/10/14
446679,Cary,CARY,Populated Place,Putnam,133,39.7069903,-86.8230638,10/1/82,
432206,Cascade,CASCADE,Populated Place,Monroe,105,39.1906025,-86.5388863,2/14/79,
432215,Cass,CASS,Populated Place,Sullivan,153,39.0869874,-87.2786267,2/14/79,
450339,Cass County,CASS COUNTY,Civil,Cass,17,40.7614915,-86.3459466,2/14/79,1/8/13
432221,Cassville,CASSVILLE,Populated Place,Howard,67,40.5600389,-86.1227701,2/14/79,
432226,Castle Garden,CASTLE GARDEN,Populated Place,Warrick,173,38.027544,-87.3991769,2/14/79,
432233,Castleton,CASTLETON,Populated Place,Marion,97,39.9069833,-86.0522071,2/14/79,
432235,Cataract,CATARACT,Populated Place,Owen,119,39.4275453,-86.816397,2/14/79,
432236,Cates,CATES,Populated Place,Fountain,45,39.9967064,-87.3377905,2/14/79,
432242,Catlin,CATLIN,Populated Place,Parke,121,39.693651,-87.2352929,2/14/79,
432243,Cato,CATO,Populated Place,Pike,125,38.4367166,-87.1855642,2/14/79,
432255,Cayuga,CAYUGA,Populated Place,Vermillion,165,39.9486489,-87.4597385,2/14/79,3/20/08
432258,Cedar,CEDAR,Populated Place,DeKalb,33,41.312827,-85.1560832,2/14/79,
432260,Cedar Canyons,CEDAR CANYONS,Populated Place,Allen,3,41.2328269,-85.0891371,2/14/79,
2106828,Cedar Cove,CEDAR COVE,Populated Place,Hamilton,57,39.9283333,-86.0622222,2/16/07,
449832,Cedar Farm Landing,CEDAR FARM LANDING,Populated Place,Harrison,61,37.9731271,-86.0621886,2/14/79,
449633,Cedar Grove,CEDAR GROVE,Populated Place,Franklin,47,39.3569969,-84.9377346,2/14/79,3/20/08
2107805,Cedar Hills,CEDAR HILLS,Populated Place,Johnson,81,39.5677778,-86.1797222,2/26/07,
432282,Cedar Lake,CEDAR LAKE,Populated Place,Lake,89,41.3647578,-87.4411473,2/14/79,3/20/08
2514860,Cedar Lake Mobile Home Park,CEDAR LAKE MOBILE HOME PARK,Populated Place,Lake,89,41.3755556,-87.4441667,12/16/08,
432290,Cedar Point,CEDAR POINT,Populated Place,White,181,40.7089275,-86.7602892,2/14/79,
452029,Cedar Point,CEDAR POINT,Populated Place,Kosciusko,85,41.3978255,-85.6752647,2/14/79,
432291,Cedar Shores,CEDAR SHORES,Populated Place,Allen,3,41.2275492,-85.0721921,2/14/79,
432292,Cedarville,CEDARVILLE,Populated Place,Allen,3,41.2036604,-85.0219129,2/14/79,5/7/08
432294,Celestine,CELESTINE,Populated Place,Dubois,37,38.3847773,-86.7791599,2/14/79,
450762,Celina,CELINA,Populated Place,Perry,123,38.1881152,-86.6127629,2/14/79,
432295,Cementville,CEMENTVILLE,Populated Place,Clark,19,38.34979,-85.7460744,2/14/79,4/10/14
432301,Centenary,CENTENARY,Populated Place,Vermillion,165,39.6583695,-87.4733532,2/14/79,
452114,Centennial,CENTENNIAL,Populated Place,Fountain,45,40.0114297,-87.2433436,10/1/82,
432308,Center,CENTER,Populated Place,Warrick,173,38.0486563,-87.3430639,2/14/79,
432309,Center,CENTER,Populated Place,Jay,75,40.4450448,-85.0769138,2/14/79,
449634,Center,CENTER,Populated Place,Howard,67,40.4344825,-86.0605449,2/14/79,
432336,Center Point,CENTER POINT,Populated Place,Clay,21,39.4169862,-87.0772361,2/14/79,4/10/14
449635,Center Square,CENTER SQUARE,Populated Place,Switzerland,155,38.8364497,-85.0313397,2/14/79,
432343,Center Valley,CENTER VALLEY,Populated Place,Morgan,109,39.5136586,-86.4088831,2/14/79,
452030,Center Valley,CENTER VALLEY,Populated Place,Hendricks,63,39.6303243,-86.4799967,2/14/79,
449636,Centerton,CENTERTON,Populated Place,Morgan,109,39.5150476,-86.3949938,2/14/79,
432345,Centerville,CENTERVILLE,Populated Place,Spencer,147,37.9942169,-87.0633311,2/14/79,
432346,Centerville,CENTERVILLE,Populated Place,Wayne,177,39.8178246,-84.9963518,2/14/79,3/20/08
432348,Central,CENTRAL,Populated Place,Harrison,61,38.0997912,-86.1585818,2/14/79,
449483,Central,CENTRAL,Populated Place,Jefferson,77,38.7736707,-85.3332903,10/1/82,
432350,Central Barren,CENTRAL BARREN,Populated Place,Harrison,61,38.3642304,-86.0963623,2/14/79,
432377,Ceylon,CEYLON,Populated Place,Adams,1,40.6067128,-84.9533005,2/14/79,
452563,Chain-O-Lakes,CHAIN-O-LAKES,Populated Place,St. Joseph,141,41.70838,-86.3800123,2/14/79,
432383,Chalmers,CHALMERS,Populated Place,White,181,40.6630933,-86.8694571,2/14/79,3/20/08
450763,Chambersburg,CHAMBERSBURG,Populated Place,Orange,117,38.5181121,-86.3922073,2/14/79,
432392,Champlin Meadows,CHAMPLIN MEADOWS,Populated Place,Morgan,109,39.4075474,-86.4366617,2/14/79,
432394,Chandler,CHANDLER,Populated Place,Pike,125,38.4214371,-87.352237,2/14/79,
432395,Chandler,CHANDLER,Populated Place,Warrick,173,38.0417114,-87.3680648,2/14/79,4/10/14
432401,Chapel Hill,CHAPEL HILL,Populated Place,Marion,97,39.7750438,-86.281935,2/14/79,
450765,Chapel Hill,CHAPEL HILL,Populated Place,Monroe,105,38.9983826,-86.4491598,2/14/79,
432405,Chapel Manor,CHAPEL MANOR,Populated Place,Lake,89,41.4761477,-87.3317027,2/14/79,
2514874,Char-el Mobile Home Park,CHAR-EL MOBILE HOME PARK,Populated Place,Lake,89,41.5505556,-87.4019444,12/16/08,
432416,Charle Sumac Estates,CHARLE SUMAC ESTATES,Populated Place,Marion,97,39.6786561,-85.9744265,2/14/79,
432424,Charlesmac Village,CHARLESMAC VILLAGE,Populated Place,Marion,97,39.6842115,-85.9791489,2/14/79,
2106854,Charleston Crossing,CHARLESTON CROSSING,Populated Place,Hamilton,57,39.9541667,-86.0269444,2/16/07,
432425,Charlestown,CHARLESTOWN,Populated Place,Clark,19,38.45312,-85.6702407,2/14/79,3/20/08
432429,Charlottesville,CHARLOTTESVILLE,Populated Place,Union,161,39.5361624,-84.8530123,2/14/79,
432430,Charlottesville,CHARLOTTESVILLE,Populated Place,Hancock,59,39.7903221,-85.6127533,2/14/79,4/10/14
432433,Chase,CHASE,Populated Place,Benton,7,40.519481,-87.341961,2/14/79,
2107247,Chateau Court,CHATEAU COURT,Populated Place,Hamilton,57,39.9655556,-85.9775,2/16/07,
432436,Chatterton,CHATTERTON,Populated Place,Warren,171,40.4036478,-87.2397344,2/14/79,4/16/14
432440,Chelsea,CHELSEA,Populated Place,Jefferson,77,38.650616,-85.5249606,2/14/79,
432442,Cherry Grove,CHERRY GROVE,Populated Place,Montgomery,107,40.1355957,-86.9044515,2/14/79,
2106845,Cherry Hill Farms,CHERRY HILL FARMS,Populated Place,Hamilton,57,39.9544444,-86.0486111,2/16/07,
432447,Cherryvale,CHERRYVALE,Populated Place,Vigo,167,39.4633722,-87.2394614,2/14/79,
432449,Chester,CHESTER,Populated Place,Wayne,177,39.8881034,-84.8877386,2/14/79,
432454,Chesterfield,CHESTERFIELD,Populated Place,Madison,95,40.112543,-85.5969195,2/14/79,4/16/14
432456,Chesterton,CHESTERTON,Populated Place,Hamilton,57,39.9289279,-86.1208207,2/14/79,
432457,Chesterton,CHESTERTON,Populated Place,Porter,127,41.6105938,-87.0641992,2/14/79,3/20/08
432459,Chesterville,CHESTERVILLE,Populated Place,Dearborn,29,39.067834,-85.0521773,2/14/79,
452121,Chestnut Hill,CHESTNUT HILL,Populated Place,Clark,19,38.4758948,-85.9327486,10/1/82,
2107221,Chestnut Hill,CHESTNUT HILL,Populated Place,Hamilton,57,39.9402778,-85.9552778,2/16/07,
432464,Chestnut Ridge,CHESTNUT RIDGE,Populated Place,Jackson,71,38.8886657,-85.8602521,2/14/79,
452102,Chetwynd,CHETWYND,Populated Place,Morgan,109,39.4431038,-86.269435,10/1/82,
432475,Chili,CHILI,Populated Place,Miami,103,40.8600426,-86.0263814,2/14/79,
432479,China,CHINA,Populated Place,Jefferson,77,38.8258919,-85.3382911,2/14/79,4/16/14
432490,Chrisney,CHRISNEY,Populated Place,Spencer,147,38.0147731,-87.036386,2/14/79,4/16/14
450775,Christiansburg,CHRISTIANSBURG,Populated Place,Brown,13,39.0886617,-86.1560991,2/14/79,4/16/14
432516,Churubusco,CHURUBUSCO,Populated Place,Whitley,183,41.2306034,-85.3194208,2/14/79,4/16/14
432518,Cicero,CICERO,Populated Place,Hamilton,57,40.1239257,-86.0133181,2/14/79,3/20/08
432522,Cincinnati,CINCINNATI,Populated Place,Greene,55,39.0200469,-86.728891,2/14/79,4/16/14
452157,Cincinnati,CINCINNATI,Populated Place,Parke,121,39.8569851,-87.2261237,10/1/82,
2514865,Circle Mobile Home Park,CIRCLE MOBILE HOME PARK,Populated Place,Lake,89,41.5641667,-87.2733333,12/16/08,
432529,Circle Park,CIRCLE PARK,Populated Place,Steuben,151,41.5497727,-84.9099617,2/14/79,
432531,Circleville,CIRCLEVILLE,Populated Place,Rush,139,39.6003249,-85.4391369,2/14/79,
2393917,City of Alexandria,CITY OF ALEXANDRIA,Civil,Madison,95,40.2583803,-85.6761303,2/27/08,1/16/13
2393952,City of Anderson,CITY OF ANDERSON,Civil,Madison,95,40.0893263,-85.6892137,2/27/08,1/16/13
2393958,City of Angola,CITY OF ANGOLA,Civil,Steuben,151,41.643367,-85.0041281,2/27/08,1/15/13
2394018,City of Attica,CITY OF ATTICA,Civil,Fountain,45,40.2876677,-87.2449888,2/27/08,1/16/13
2394022,City of Auburn,CITY OF AUBURN,Civil,DeKalb,33,41.3667273,-85.054367,2/27/08,1/15/13
2394030,City of Aurora,CITY OF AURORA,Civil,Dearborn,29,39.0650316,-84.9045816,2/27/08,1/15/13
2397445,City of Austin,CITY OF AUSTIN,Civil,Scott,143,38.7416946,-85.8118164,2/27/08,1/16/13
2394080,City of Batesville,CITY OF BATESVILLE,Civil,Ripley,137,39.2973638,-85.213879,2/27/08,1/16/13
2394104,City of Bedford,CITY OF BEDFORD,Civil,Lawrence,93,38.8602422,-86.4895144,2/27/08,1/15/13
2394106,City of Beech Grove,CITY OF BEECH GROVE,Civil,Marion,97,39.7153423,-86.0869634,2/27/08,1/16/13
2394149,City of Berne,CITY OF BERNE,Civil,Adams,1,40.6568149,-84.9555122,2/27/08,1/16/13
2394162,City of Bicknell,CITY OF BICKNELL,Civil,Knox,83,38.7743018,-87.3078428,2/27/08,1/15/13
2394196,City of Bloomington,CITY OF BLOOMINGTON,Civil,Monroe,105,39.1637102,-86.5257819,2/27/08,1/16/13
2394209,City of Bluffton,CITY OF BLUFFTON,Civil,Wells,179,40.7425474,-85.1730781,2/27/08,1/16/13
2394221,City of Boonville,CITY OF BOONVILLE,Civil,Warrick,173,38.0452194,-87.2740332,2/27/08,1/16/13
2393404,City of Brazil,CITY OF BRAZIL,Civil,Clay,21,39.5232225,-87.1242707,2/27/08,1/17/13
2393482,City of Butler,CITY OF BUTLER,Civil,DeKalb,33,41.4274045,-84.8721518,2/27/08,1/17/13
2393730,City of Cannelton,CITY OF CANNELTON,Civil,Perry,123,37.9104084,-86.7371284,2/27/08,1/17/13
2393750,City of Carmel,CITY OF CARMEL,Civil,Hamilton,57,39.9658417,-86.1461285,2/27/08,1/17/13
2393805,City of Charlestown,CITY OF CHARLESTOWN,Civil,Clark,19,38.4270268,-85.6677645,2/27/08,1/16/13
2393567,City of Clinton,CITY OF CLINTON,Civil,Vermillion,165,39.6606688,-87.4045584,2/27/08,1/17/13
2393606,City of Columbia City,CITY OF COLUMBIA CITY,Civil,Whitley,183,41.1610172,-85.4854108,2/27/08,1/15/13
2393609,City of Columbus,CITY OF COLUMBUS,Civil,Bartholomew,5,39.2094674,-85.9178484,2/27/08,1/16/13
2393620,City of Connersville,CITY OF CONNERSVILLE,Civil,Fayette,41,39.6582514,-85.141011,2/27/08,1/17/13
2393656,City of Covington,CITY OF COVINGTON,Civil,Fountain,45,40.1404529,-87.39104,2/27/08,1/16/13
2393664,City of Crawfordsville,CITY OF CRAWFORDSVILLE,Civil,Montgomery,107,40.0432826,-86.8966934,2/27/08,1/17/13
2393682,City of Crown Point,CITY OF CROWN POINT,Civil,Lake,89,41.4140158,-87.3454816,2/27/08,1/16/13
2394480,City of Decatur,CITY OF DECATUR,Civil,Adams,1,40.8300681,-84.928018,2/27/08,1/17/13
2394507,City of Delphi,CITY OF DELPHI,Civil,Carroll,15,40.5830872,-86.6671691,2/27/08,1/17/13
2394576,City of Dunkirk,CITY OF DUNKIRK,Civil,Jay,75,40.3744342,-85.2072446,2/27/08,1/16/13
2394597,City of East Chicago,CITY OF EAST CHICAGO,Civil,Lake,89,41.6500007,-87.4518072,2/27/08,1/16/13
2394653,City of Elkhart,CITY OF ELKHART,Civil,Elkhart,39,41.6910044,-85.9652545,2/27/08,1/16/13
2394680,City of Elwood,CITY OF ELWOOD,Civil,Madison,95,40.2742931,-85.8371467,2/27/08,1/15/13
2394710,City of Evansville,CITY OF EVANSVILLE,Civil,Vanderburgh,163,37.988135,-87.5340409,2/27/08,1/17/13
2394798,City of Fort Wayne,CITY OF FORT WAYNE,Civil,Allen,3,41.088492,-85.1435899,2/27/08,1/16/13
2394805,City of Frankfort,CITY OF FRANKFORT,Civil,Clinton,23,40.2796775,-86.5107781,2/27/08,1/15/13
2394808,City of Franklin,CITY OF FRANKLIN,Civil,Johnson,81,39.4934882,-86.0540797,2/27/08,1/16/13
2394858,City of Garrett,CITY OF GARRETT,Civil,DeKalb,33,41.3534339,-85.1236025,2/27/08,1/17/13
2394863,City of Gary,CITY OF GARY,Civil,Lake,89,41.5956028,-87.3452081,2/27/08,1/17/13
2394866,City of Gas City,CITY OF GAS CITY,Civil,Grant,53,40.4898115,-85.5985095,2/27/08,1/16/13
2394935,City of Goshen,CITY OF GOSHEN,Civil,Elkhart,39,41.5744404,-85.8305458,2/27/08,1/17/13
2394980,City of Greencastle,CITY OF GREENCASTLE,Civil,Putnam,133,39.6430867,-86.8418713,2/27/08,1/16/13
2394982,City of Greendale,CITY OF GREENDALE,Civil,Dearborn,29,39.1234105,-84.8612202,2/27/08,1/16/13
2394986,City of Greenfield,CITY OF GREENFIELD,Civil,Hancock,59,39.7943659,-85.7730332,2/27/08,1/16/13
2394992,City of Greensburg,CITY OF GREENSBURG,Civil,Decatur,31,39.3514629,-85.5024031,2/27/08,1/15/13
2394244,City of Greenwood,CITY OF GREENWOOD,Civil,Johnson,81,39.6036075,-86.1126194,2/27/08,1/15/13
2394280,City of Hammond,CITY OF HAMMOND,Civil,Lake,89,41.6206625,-87.4917628,2/27/08,1/16/13
2394309,City of Hartford City,CITY OF HARTFORD CITY,Civil,Blackford,9,40.4536692,-85.3735144,2/27/08,1/15/13
2394393,City of Hobart,CITY OF HOBART,Civil,Lake,89,41.5138758,-87.2727469,2/27/08,1/16/13
2394451,City of Huntingburg,CITY OF HUNTINGBURG,Civil,Dubois,37,38.3009029,-86.9624525,2/27/08,1/16/13
2394452,City of Huntington,CITY OF HUNTINGTON,Civil,Huntington,69,40.8811805,-85.5061571,2/27/08,1/15/13
2395423,City of Indianapolis,CITY OF INDIANAPOLIS,Civil,Marion,97,39.7778261,-86.145737,2/27/08,
2395424,City of Indianapolis (balance),CITY OF INDIANAPOLIS (BALANCE),Populated Place,Marion,97,39.7771237,-86.1457834,2/27/08,4/25/13
2395457,City of Jasonville,CITY OF JASONVILLE,Civil,Greene,55,39.1619757,-87.1994054,2/27/08,1/16/13
2395458,City of Jasper,CITY OF JASPER,Civil,Dubois,37,38.3936385,-86.940047,2/27/08,1/15/13
2395463,City of Jeffersonville,CITY OF JEFFERSONVILLE,Civil,Clark,19,38.3375651,-85.7026185,2/27/08,1/17/13
2395479,City of Jonesboro,CITY OF JONESBORO,Civil,Grant,53,40.4797505,-85.6303651,2/27/08,1/17/13
2395505,City of Kendallville,CITY OF KENDALLVILLE,Civil,Noble,113,41.4441171,-85.2577864,2/27/08,1/16/13
2395556,City of Knox,CITY OF KNOX,Civil,Starke,149,41.2909865,-86.6210473,2/27/08,1/16/13
2395560,City of Kokomo,CITY OF KOKOMO,Civil,Howard,67,40.4680787,-86.1352366,2/27/08,1/17/13
2395570,City of La Porte,CITY OF LA PORTE,Civil,LaPorte,91,41.6076674,-86.713644,2/27/08,1/15/13
2395583,City of Lafayette,CITY OF LAFAYETTE,Civil,Tippecanoe,157,40.3993282,-86.8616188,2/27/08,1/16/13
2395602,City of Lake Station,CITY OF LAKE STATION,Civil,Lake,89,41.5728587,-87.2599782,2/27/08,1/17/13
2395647,City of Lawrence,CITY OF LAWRENCE,Civil,Marion,97,39.8674028,-85.9904181,2/27/08,1/16/13
2395648,City of Lawrenceburg,CITY OF LAWRENCEBURG,Civil,Dearborn,29,39.0986566,-84.8703935,2/27/08,1/17/13
2395662,City of Lebanon,CITY OF LEBANON,Civil,Boone,11,40.0317385,-86.4547628,2/27/08,1/15/13
2395706,City of Ligonier,CITY OF LIGONIER,Civil,Noble,113,41.465055,-85.594553,2/27/08,1/15/13
2395726,City of Linton,CITY OF LINTON,Civil,Greene,55,39.0357438,-87.1586951,2/27/08,1/16/13
2395746,City of Logansport,CITY OF LOGANSPORT,Civil,Cass,17,40.75018,-86.3559161,2/27/08,1/16/13
2395763,City of Loogootee,CITY OF LOOGOOTEE,Civil,Martin,101,38.6759086,-86.9142621,2/27/08,1/15/13
2395805,City of Madison,CITY OF MADISON,Civil,Jefferson,77,38.7581067,-85.3969622,2/27/08,1/16/13
2395009,City of Marion,CITY OF MARION,Civil,Grant,53,40.5497742,-85.6595981,2/27/08,1/15/13
2395032,City of Martinsville,CITY OF MARTINSVILLE,Civil,Morgan,109,39.422634,-86.4210648,2/27/08,1/17/13
2395110,City of Michigan City,CITY OF MICHIGAN CITY,Civil,LaPorte,91,41.7128325,-86.8758271,2/27/08,1/17/13
2395354,City of Mishawaka,CITY OF MISHAWAKA,Civil,St. Joseph,141,41.6718263,-86.1670584,2/27/08,1/16/13
2395357,City of Mitchell,CITY OF MITCHELL,Civil,Lawrence,93,38.7363356,-86.4746263,2/27/08,1/17/13
2395383,City of Monticello,CITY OF MONTICELLO,Civil,White,181,40.7454855,-86.7669364,2/27/08,1/17/13
2395388,City of Montpelier,CITY OF MONTPELIER,Civil,Blackford,9,40.5494214,-85.2874157,2/27/08,1/15/13
2395128,City of Mount Vernon,CITY OF MOUNT VERNON,Civil,Posey,129,37.936447,-87.8952409,2/27/08,1/16/13
2395138,City of Muncie,CITY OF MUNCIE,Civil,Delaware,35,40.1982143,-85.3899839,2/27/08,7/30/13
2395150,City of Nappanee,CITY OF NAPPANEE,Civil,Elkhart,39,41.4450576,-85.9963751,2/27/08,1/17/13
2395181,City of New Albany,CITY OF NEW ALBANY,Civil,Floyd,43,38.3076875,-85.8241035,2/27/08,1/16/13
2395191,City of New Castle,CITY OF NEW CASTLE,Civil,Henry,65,39.9189887,-85.3697686,2/27/08,1/15/13
2395199,City of New Haven,CITY OF NEW HAVEN,Civil,Allen,3,41.0672213,-85.0284837,2/27/08,1/16/13
2395240,City of Noblesville,CITY OF NOBLESVILLE,Civil,Hamilton,57,40.0355721,-86.0060696,2/27/08,1/16/13
2395262,City of North Vernon,CITY OF NORTH VERNON,Civil,Jennings,79,39.0150759,-85.6286764,2/27/08,1/16/13
2395292,City of Oakland City,CITY OF OAKLAND CITY,Civil,Gibson,51,38.3378058,-87.3492498,2/27/08,1/17/13
2396188,City of Peru,CITY OF PERU,Civil,Miami,103,40.7585294,-86.0714124,2/27/08,1/17/13
2396192,City of Petersburg,CITY OF PETERSBURG,Civil,Pike,125,38.4918854,-87.2810142,2/27/08,1/15/13
2396241,City of Plymouth,CITY OF PLYMOUTH,Civil,Marshall,99,41.3482263,-86.3187381,2/27/08,1/16/13
2396254,City of Portage,CITY OF PORTAGE,Civil,Porter,127,41.589074,-87.179877,2/27/08,1/16/13
2396259,City of Portland,CITY OF PORTLAND,Civil,Jay,75,40.4376541,-84.9834409,2/27/08,1/17/13
2396277,City of Princeton,CITY OF PRINCETON,Civil,Gibson,51,38.3552472,-87.5785277,2/27/08,1/17/13
2396349,City of Rensselaer,CITY OF RENSSELAER,Civil,Jasper,73,40.9378635,-87.1685946,2/27/08,1/17/13
2396366,City of Richmond,CITY OF RICHMOND,Civil,Wayne,177,39.8318133,-84.8899855,2/27/08,1/17/13
2396381,City of Rising Sun,CITY OF RISING SUN,Civil,Ohio,115,38.9533108,-84.8543265,2/27/08,1/16/13
2396394,City of Rochester,CITY OF ROCHESTER,Civil,Fulton,49,41.0590597,-86.1959949,2/27/08,1/16/13
2396408,City of Rockport,CITY OF ROCKPORT,Civil,Spencer,147,37.8899241,-87.0538135,2/27/08,1/16/13
2396452,City of Rushville,CITY OF RUSHVILLE,Civil,Rush,139,39.6153961,-85.4463165,2/27/08,1/16/13
2396525,City of Salem,CITY OF SALEM,Civil,Washington,175,38.6047781,-86.0977419,2/27/08,1/15/13
2396560,City of Scottsburg,CITY OF SCOTTSBURG,Civil,Scott,143,38.6864221,-85.7840062,2/27/08,1/15/13
2395850,City of Seymour,CITY OF SEYMOUR,Civil,Jackson,71,38.9468696,-85.8921325,2/27/08,1/16/13
2395864,City of Shelbyville,CITY OF SHELBYVILLE,Civil,Shelby,145,39.5320204,-85.7753446,2/27/08,1/16/13
2395913,City of South Bend,CITY OF SOUTH BEND,Civil,St. Joseph,141,41.6771045,-86.2690699,2/27/08,1/16/13
2395920,City of Southport,CITY OF SOUTHPORT,Civil,Marion,97,39.6599862,-86.1171151,2/27/08,1/15/13
2395996,City of Sullivan,CITY OF SULLIVAN,Civil,Sullivan,153,39.0972885,-87.4073225,2/27/08,1/16/13
2396037,City of Tell City,CITY OF TELL CITY,Civil,Perry,123,37.9528552,-86.7596518,2/27/08,1/17/13
2396042,City of Terre Haute,CITY OF TERRE HAUTE,Civil,Vigo,167,39.4654004,-87.3762656,2/27/08,1/16/13
2397028,City of Tipton,CITY OF TIPTON,Civil,Tipton,159,40.2838628,-86.0418775,2/27/08,1/16/13
2397087,City of Union City,CITY OF UNION CITY,Civil,Randolph,135,40.1993983,-84.8203414,2/27/08,1/16/13
2397114,City of Valparaiso,CITY OF VALPARAISO,Civil,Porter,127,41.4797998,-87.0531041,2/27/08,1/16/13
2397143,City of Vincennes,CITY OF VINCENNES,Civil,Knox,83,38.6759286,-87.5101588,2/27/08,1/16/13
2397155,City of Wabash,CITY OF WABASH,Civil,Wabash,169,40.8030247,-85.8324746,2/27/08,1/16/13
2397199,City of Warsaw,CITY OF WARSAW,Civil,Kosciusko,85,41.2434335,-85.8479555,2/27/08,1/16/13
2397205,City of Washington,CITY OF WASHINGTON,Civil,Daviess,27,38.6591465,-87.1720801,2/27/08,1/16/13
2397268,City of West Lafayette,CITY OF WEST LAFAYETTE,Civil,Tippecanoe,157,40.455644,-86.9135871,2/27/08,1/16/13
2397304,City of Whiting,CITY OF WHITING,Civil,Lake,89,41.6781292,-87.481925,2/27/08,1/16/13
2397335,City of Winchester,CITY OF WINCHESTER,Civil,Randolph,135,40.17187,-84.9765675,2/27/08,1/17/13
2397367,City of Woodburn,CITY OF WOODBURN,Civil,Allen,3,41.124999,-84.852835,2/27/08,1/17/13
432546,Clanricarde,CLANRICARDE,Populated Place,Porter,127,41.2883729,-86.9494676,2/14/79,4/16/14
447639,Clare,CLARE,Populated Place,Hamilton,57,40.1153151,-85.9610943,10/1/82,
450340,Clark County,CLARK COUNTY,Civil,Clark,19,38.4771815,-85.7072825,2/14/79,1/8/13
432566,Clark Siding,CLARK SIDING,Populated Place,Clark,19,38.4728415,-85.663574,2/14/79,
432569,Clarke Junction,CLARKE JUNCTION,Populated Place,Lake,89,41.6300359,-87.4164292,2/14/79,
446694,Clarks,CLARKS,Populated Place,Pulaski,131,41.1333729,-86.890297,10/1/82,
449638,Clarks Hill,CLARKS HILL,Populated Place,Tippecanoe,157,40.2469805,-86.7250055,2/14/79,6/25/11
449833,Clarks Landing,CLARKS LANDING,Populated Place,Steuben,151,41.5597727,-84.9116284,2/14/79,
432573,Clarksburg,CLARKSBURG,Populated Place,Decatur,31,39.4333826,-85.3477442,2/14/79,1/29/11
2587015,Clarksburg Census Designated Place,CLARKSBURG CENSUS DESIGNATED PLACE,Census,Decatur,31,39.4352836,-85.347205,6/10/10,4/25/13
432574,Clarksdale,CLARKSDALE,Populated Place,Brown,13,39.2000501,-86.1261036,2/14/79,
432577,Clarksville,CLARKSVILLE,Populated Place,Hamilton,57,40.0322601,-85.9124816,2/14/79,
432578,Clarksville,CLARKSVILLE,Populated Place,Clark,19,38.2967362,-85.7599631,2/14/79,5/1/14
432584,Clay City,CLAY CITY,Populated Place,Spencer,147,38.0825529,-86.9516616,2/14/79,
432585,Clay City,CLAY CITY,Populated Place,Clay,21,39.2767084,-87.1127908,2/14/79,5/1/14
450341,Clay County,CLAY COUNTY,Civil,Clay,21,39.3927278,-87.1157584,2/14/79,1/8/13
432596,Claypool,CLAYPOOL,Populated Place,Kosciusko,85,41.129211,-85.8805466,2/14/79,3/20/08
450779,Claysville,CLAYSVILLE,Populated Place,Washington,175,38.6225558,-86.2894282,2/14/79,5/1/14
432598,Clayton,CLAYTON,Populated Place,Hendricks,63,39.6892129,-86.5224984,2/14/79,3/20/08
449639,Clear Creek,CLEAR CREEK,Populated Place,Monroe,105,39.1092143,-86.5399968,2/14/79,5/1/14
432626,Clear Lake,CLEAR LAKE,Populated Place,Steuben,151,41.7375498,-84.8332916,2/14/79,5/1/14
450782,Clear Spring,CLEAR SPRING,Populated Place,Jackson,71,38.9250519,-86.2099851,2/14/79,5/1/14
2107806,Clearview,CLEARVIEW,Populated Place,Johnson,81,39.5833333,-86.2116667,2/26/07,
432641,Clermont,CLERMONT,Populated Place,Marion,97,39.8097656,-86.3224925,2/14/79,5/1/14
432643,Clermont Heights,CLERMONT HEIGHTS,Populated Place,Hendricks,63,39.82671,-86.3441603,2/14/79,
2109635,Clermont Mobile Home Park,CLERMONT MOBILE HOME PARK,Populated Place,Hendricks,63,39.815,-86.3280556,3/8/07,
432645,Cleveland,CLEVELAND,Populated Place,Hancock,59,39.7903218,-85.6446982,2/14/79,
432650,Clifford,CLIFFORD,Populated Place,Bartholomew,5,39.2822733,-85.8691559,2/14/79,3/20/08
452203,Clifford Park (historical),CLIFFORD PARK (HISTORICAL),Populated Place,Marion,97,39.7889312,-86.0880405,10/1/82,
432653,Clifton,CLIFTON,Populated Place,Union,161,39.6903261,-84.9557944,2/14/79,
448347,Clifton,CLIFTON,Populated Place,Marion,97,39.8161533,-86.1830436,10/1/82,
432670,Clinton,CLINTON,Populated Place,Ripley,137,39.2106085,-85.1319034,2/14/79,
432671,Clinton,CLINTON,Populated Place,Vermillion,165,39.6569817,-87.3980741,2/14/79,3/20/08
450342,Clinton County,CLINTON COUNTY,Civil,Clinton,23,40.3016906,-86.4751595,2/14/79,1/8/13
432677,Clinton Falls,CLINTON FALLS,Populated Place,Putnam,133,39.7192114,-86.9638999,2/14/79,5/1/14
432687,Clover Village,CLOVER VILLAGE,Populated Place,Shelby,145,39.6075467,-85.8591473,2/14/79,
432688,Cloverdale,CLOVERDALE,Populated Place,Putnam,133,39.5147682,-86.7938969,2/14/79,3/20/08
432691,Cloverland,CLOVERLAND,Populated Place,Clay,21,39.5014276,-87.2314061,2/14/79,5/1/14
432694,Clunette,CLUNETTE,Populated Place,Kosciusko,85,41.3197679,-85.9227723,2/14/79,
432697,Clymers,CLYMERS,Populated Place,Cass,17,40.7075392,-86.44889,2/14/79,5/1/14
449640,Coal Bluff,COAL BLUFF,Populated Place,Vigo,167,39.5828172,-87.2200161,2/14/79,
432702,Coal City,COAL CITY,Populated Place,Owen,119,39.2303203,-87.0458444,2/14/79,
432703,Coal Creek,COAL CREEK,Populated Place,Fountain,45,40.0364277,-87.3805691,2/14/79,5/1/14
432712,Coalmont,COALMONT,Populated Place,Clay,21,39.1933751,-87.2311259,2/14/79,5/1/14
2629878,Coalmont Census Designated Place,COALMONT CENSUS DESIGNATED PLACE,Census,Clay,21,39.1931657,-87.2265387,8/30/10,4/25/13
432714,Coatesville,COATESVILLE,Populated Place,Hendricks,63,39.6878242,-86.6702816,2/14/79,3/20/08
432715,Coats Spring,COATS SPRING,Populated Place,Pike,125,38.4375478,-87.3905722,2/14/79,
432716,Cobb,COBB,Populated Place,Vigo,167,39.5811505,-87.2233495,2/14/79,
432721,Cobbs Corner,COBBS CORNER,Populated Place,Porter,127,41.4347607,-87.1100306,2/14/79,
449641,Coburg,COBURG,Populated Place,Porter,127,41.5189293,-86.9494724,2/14/79,5/1/14
432727,Cochran,COCHRAN,Populated Place,Dearborn,29,39.0522799,-84.9205074,2/14/79,
449045,Coe,COE,Populated Place,Pike,125,38.3064382,-87.2580643,10/1/82,
432728,Coesse,COESSE,Populated Place,Whitley,183,41.1278248,-85.3952547,2/14/79,
432730,Coesse Corners,COESSE CORNERS,Populated Place,Whitley,183,41.140047,-85.3958103,2/14/79,
432741,Cofield Corner,COFIELD CORNER,Populated Place,Ohio,115,38.952837,-84.9585624,2/14/79,
452146,Coke Oven Hollow,COKE OVEN HOLLOW,Populated Place,Parke,121,39.8530954,-87.2919582,10/1/82,
432745,Colburn,COLBURN,Populated Place,Tippecanoe,157,40.5186472,-86.7130616,2/14/79,1/29/11
452571,Colburn,COLBURN,Populated Place,St. Joseph,141,41.5489365,-86.2683398,2/14/79,
2583448,Colburn Census Designated Place,COLBURN CENSUS DESIGNATED PLACE,Census,Tippecanoe,157,40.5188275,-86.7122825,3/31/10,4/25/13
432750,Cold Springs,COLD SPRINGS,Populated Place,Steuben,151,41.5558838,-84.9088505,2/14/79,
449642,Cold Springs,COLD SPRINGS,Populated Place,Dearborn,29,39.0714448,-85.0730112,2/14/79,5/1/14
432752,Cole,COLE,Populated Place,Grant,53,40.4797607,-85.7872027,2/14/79,
432758,Colfax,COLFAX,Populated Place,Clinton,23,40.1950377,-86.667227,2/14/79,5/1/14
2514856,Colfax Mobile Home Park,COLFAX MOBILE HOME PARK,Populated Place,Lake,89,41.5541667,-87.4108333,12/16/08,
432761,Collamer,COLLAMER,Populated Place,Whitley,183,41.0758786,-85.6647057,2/14/79,12/6/13
432762,College Corner,COLLEGE CORNER,Populated Place,Wayne,177,39.8383799,-85.0705194,2/14/79,
432763,College Corner,COLLEGE CORNER,Populated Place,Wabash,169,40.698653,-85.8855421,2/14/79,
432764,College Corner,COLLEGE CORNER,Populated Place,Madison,95,40.3058722,-85.8419249,2/14/79,
432765,College Corner,COLLEGE CORNER,Populated Place,Jay,75,40.4108783,-84.9771898,2/14/79,
432769,College Crest,COLLEGE CREST,Populated Place,Marion,97,39.9250394,-86.150544,2/14/79,
432774,College Meadows,COLLEGE MEADOWS,Populated Place,Hamilton,57,39.9353169,-86.140266,2/14/79,
432777,Collegeville,COLLEGEVILLE,Populated Place,Jasper,73,40.9117047,-87.1553002,2/14/79,4/30/14
2393381,Collegeville Census Designated Place,COLLEGEVILLE CENSUS DESIGNATED PLACE,Census,Jasper,73,40.9059053,-87.1611964,2/27/08,4/24/13
432778,Collett,COLLETT,Populated Place,Jay,75,40.3753224,-85.0008014,2/14/79,
2107207,Collingwood,COLLINGWOOD,Populated Place,Hamilton,57,39.94,-85.9847222,2/16/07,
432790,Collins,COLLINS,Populated Place,Whitley,183,41.1975472,-85.3866442,2/14/79,
432807,Coloma,COLOMA,Populated Place,Parke,121,39.7883728,-87.2919592,2/14/79,4/30/14
2514869,Colonial Mobile Home Park,COLONIAL MOBILE HOME PARK,Populated Place,Lake,89,41.5494444,-87.3922222,12/16/08,
432809,Colonial Village,COLONIAL VILLAGE,Populated Place,Hancock,59,39.9375404,-85.8349794,2/14/79,
432813,Columbia,COLUMBIA,Populated Place,Fayette,41,39.5764371,-85.2071863,2/14/79,
432816,Columbia City,COLUMBIA CITY,Populated Place,Whitley,183,41.1572686,-85.4883127,2/14/79,3/20/08
432826,Columbus,COLUMBUS,Populated Place,Bartholomew,5,39.2014405,-85.9213796,2/14/79,12/6/13
432832,Commiskey,COMMISKEY,Populated Place,Jennings,79,38.8595005,-85.645522,2/14/79,
432837,Como,COMO,Populated Place,Jay,75,40.3853221,-85.0869136,2/14/79,5/1/14
432847,Concord,CONCORD,Populated Place,Tippecanoe,157,40.2933697,-86.8375069,2/14/79,
432848,Concord,CONCORD,Populated Place,DeKalb,33,41.3261612,-84.9452429,2/14/79,
432869,Concordia Gardens,CONCORDIA GARDENS,Populated Place,Allen,3,41.1456042,-85.1066371,2/14/79,
2106856,Conner Creek,CONNER CREEK,Populated Place,Hamilton,57,39.9536111,-86.0372222,2/16/07,
2106870,Conner Knoll,CONNER KNOLL,Populated Place,Hamilton,57,39.9822222,-86.0180556,2/16/07,
432888,Connersville,CONNERSVILLE,Populated Place,Fayette,41,39.6411589,-85.1410748,2/14/79,5/1/14
2106875,Connerwood,CONNERWOOD,Populated Place,Hamilton,57,39.9902778,-86.0247222,2/16/07,
453035,Conologue,CONOLOGUE,Populated Place,Jackson,71,38.9756093,-85.7991406,10/1/82,
432895,Conrad,CONRAD,Populated Place,Newton,111,41.1050345,-87.4433653,2/14/79,
1062709,Contreras,CONTRERAS,Populated Place,Butler,17,39.5236631,-84.8116221,7/12/79,
432906,Converse,CONVERSE,Populated Place,Blackford,9,40.3894881,-85.2391377,2/14/79,
432907,Converse,CONVERSE,Populated Place,Miami,103,40.5775398,-85.8733179,2/14/79,3/20/08
432911,Cook,COOK,Populated Place,Lake,89,41.3772576,-87.4697591,2/14/79,
432927,Coolwood Acres,COOLWOOD ACRES,Populated Place,Porter,127,41.4592056,-87.0872526,2/14/79,
432947,Cooper Corner,COOPER CORNER,Populated Place,Hancock,59,39.8717089,-85.769978,2/14/79,
432951,Cope,COPE,Populated Place,Morgan,109,39.4503258,-86.3188807,2/14/79,
432958,Coppess Corner,COPPESS CORNER,Populated Place,Adams,1,40.7450468,-84.9569116,2/14/79,
2629902,Cordry Sweetwater Lakes,CORDRY SWEETWATER LAKES,Populated Place,Brown,13,39.30464,-86.11837,8/30/10,
2629877,Cordry Sweetwater Lakes Census Designated Place,CORDRY SWEETWATER LAKES CENSUS DESIGNATED PLACE,Census,Brown,13,39.3085236,-86.122163,8/30/10,4/25/13
432972,Corkwell,CORKWELL,Populated Place,Jay,75,40.4672672,-85.0585803,2/14/79,
432973,Corn Brook,CORN BROOK,Populated Place,Bartholomew,5,39.2444958,-85.939161,2/14/79,
432979,Cornelius,CORNELIUS,Populated Place,Brown,13,39.2997702,-86.2980472,2/14/79,5/1/14
432986,Cornettsville,CORNETTSVILLE,Populated Place,Daviess,27,38.7567148,-87.1100103,2/14/79,
432988,Corning,CORNING,Populated Place,Daviess,27,38.582828,-87.0175049,2/14/79,5/1/14
432992,Correct,CORRECT,Populated Place,Ripley,137,39.0086664,-85.2863479,2/14/79,
432994,Cortland,CORTLAND,Populated Place,Jackson,71,38.9731084,-85.9641467,2/14/79,5/1/14
432996,Corunna,CORUNNA,Populated Place,DeKalb,33,41.4372721,-85.1471934,2/14/79,5/1/14
446668,Corwin,CORWIN,Populated Place,Tippecanoe,157,40.2517039,-86.9150069,10/1/82,
452168,Corwin,CORWIN,Populated Place,Henry,65,39.8883797,-85.299134,10/1/82,
432999,Cory,CORY,Populated Place,Clay,21,39.3822623,-87.2058491,2/14/79,5/1/14
433003,Corydon,CORYDON,Populated Place,Harrison,61,38.2120121,-86.1219155,2/14/79,5/1/14
433004,Corydon Junction,CORYDON JUNCTION,Populated Place,Harrison,61,38.3033989,-86.10025,2/14/79,
433009,Cosperville,COSPERVILLE,Populated Place,Noble,113,41.4808828,-85.4741482,2/14/79,
433011,Cottage Grove,COTTAGE GROVE,Populated Place,Union,161,39.5964394,-84.8616243,2/14/79,
433013,Cottage Hill,COTTAGE HILL,Populated Place,Clay,21,39.5169848,-87.1491825,2/14/79,
2106871,Cottingham Estates,COTTINGHAM ESTATES,Populated Place,Hamilton,57,39.9836111,-86.0119444,2/16/07,
433027,Country Club Gardens,COUNTRY CLUB GARDENS,Populated Place,Allen,3,41.0497701,-85.2224722,2/14/79,
433028,Country Club Heights,COUNTRY CLUB HEIGHTS,Populated Place,Madison,95,40.1228194,-85.6871985,2/14/79,3/20/08
433029,Country Club Meadows,COUNTRY CLUB MEADOWS,Populated Place,Vanderburgh,163,38.0230979,-87.5730722,2/14/79,
2515656,Country Manor Estates,COUNTRY MANOR ESTATES,Populated Place,Morgan,109,39.5527778,-86.3761111,12/29/08,
1926990,Country Squire Lakes,COUNTRY SQUIRE LAKES,Populated Place,Jennings,79,39.0347756,-85.6985833,7/11/01,6/24/10
2629850,Country Squire Lakes Census Designated Place,COUNTRY SQUIRE LAKES CENSUS DESIGNATED PLACE,Census,Jennings,79,39.0379775,-85.684962,8/30/10,4/25/13
433045,Courter,COURTER,Populated Place,Miami,103,40.8369866,-86.0630487,2/14/79,
433047,Courtney Corner,COURTNEY CORNER,Populated Place,Steuben,151,41.6294946,-84.83857,2/14/79,
450809,Coveyville,COVEYVILLE,Populated Place,Lawrence,93,38.9733828,-86.4724935,2/14/79,
433050,Covington,COVINGTON,Populated Place,Fountain,45,40.1417045,-87.3947357,2/14/79,3/20/08
433051,Covington Dells,COVINGTON DELLS,Populated Place,Allen,3,41.0694923,-85.2330282,2/14/79,
2106833,Covington Estates,COVINGTON ESTATES,Populated Place,Hamilton,57,39.9308333,-86.0066667,2/16/07,
433055,Cowan,COWAN,Populated Place,Delaware,35,40.1058781,-85.388582,2/14/79,
450811,Coxton,COXTON,Populated Place,Lawrence,93,38.829495,-86.5611057,2/14/79,
433073,Coxville,COXVILLE,Populated Place,Parke,121,39.6519831,-87.294461,2/14/79,5/1/14
433076,Cradick Corner,CRADICK CORNER,Populated Place,Putnam,133,39.5439348,-86.8058415,2/14/79,
433077,Craig,CRAIG,Populated Place,Decatur,31,39.3322723,-85.5194157,2/14/79,
433082,Craigville,CRAIGVILLE,Populated Place,Wells,179,40.7783802,-85.0908026,2/14/79,
433086,Crandall,CRANDALL,Populated Place,Harrison,61,38.2875664,-86.0663597,2/14/79,3/20/08
433088,Crane,CRANE,Populated Place,Martin,101,38.8911588,-86.9038938,2/14/79,3/20/08
452113,Crawford,CRAWFORD,Populated Place,Lawrence,93,38.8458849,-86.397212,10/1/82,
451674,Crawford County,CRAWFORD COUNTY,Civil,Crawford,25,38.2924146,-86.4517084,2/14/79,1/8/13
433103,Crawfordsville,CRAWFORDSVILLE,Populated Place,Montgomery,107,40.0411536,-86.8744516,2/14/79,3/20/08
433104,Crawleyville,CRAWLEYVILLE,Populated Place,Gibson,51,38.2833792,-87.8333628,2/14/79,
433110,Creekwood,CREEKWOOD,Populated Place,Marion,97,39.8772625,-86.1188757,2/14/79,
433111,Cresco,CRESCO,Populated Place,Whitley,183,41.2358798,-85.4916472,2/14/79,
452577,Crest Manor Addition,CREST MANOR ADDITION,Populated Place,St. Joseph,141,41.6164368,-86.2333391,2/14/79,
433114,Crestlawn,CRESTLAWN,Populated Place,Madison,95,40.0747643,-85.6802542,2/14/79,
433115,Crestmoor,CRESTMOOR,Populated Place,Shelby,145,39.5139374,-85.763868,2/14/79,
433116,Creston,CRESTON,Populated Place,Delaware,35,40.2111543,-85.3741375,2/14/79,
433117,Creston,CRESTON,Populated Place,Lake,89,41.3378134,-87.4314245,2/14/79,
433118,Crestview,CRESTVIEW,Populated Place,Porter,127,41.4519836,-87.0580852,2/14/79,
433120,Crestview Heights,CRESTVIEW HEIGHTS,Populated Place,Morgan,109,39.5850468,-86.3163805,2/14/79,
433124,Crestwood,CRESTWOOD,Populated Place,Allen,3,41.1400486,-85.1230263,2/14/79,
433126,Crete,CRETE,Populated Place,Randolph,135,40.0433805,-84.8616282,2/14/79,
433135,Crisman,CRISMAN,Populated Place,Porter,127,41.5869818,-87.1739234,2/14/79,
433136,Critchfield,CRITCHFIELD,Populated Place,Johnson,81,39.6003247,-86.1633207,2/14/79,
433138,Crocker,CROCKER,Populated Place,Porter,127,41.5880935,-87.1222556,2/14/79,
433146,Crompton Hill,CROMPTON HILL,Populated Place,Vermillion,165,39.6558703,-87.4191856,2/14/79,
433147,Cromwell,CROMWELL,Populated Place,Noble,113,41.4006036,-85.6158185,2/14/79,3/20/08
452033,Crooked Lake,CROOKED LAKE,Populated Place,Steuben,151,41.6797725,-85.0366324,2/14/79,
449643,Cross Plains,CROSS PLAINS,Populated Place,Ripley,137,38.943946,-85.2046785,2/14/79,
433187,Cross Roads,CROSS ROADS,Populated Place,Ripley,137,39.2794956,-85.2416287,2/14/79,
433188,Cross Roads,CROSS ROADS,Populated Place,Delaware,35,40.0917115,-85.4996962,2/14/79,
452034,Crossroad Temple,CROSSROAD TEMPLE,Populated Place,Marion,97,39.7525431,-86.0666506,2/14/79,
452234,Crossroads (historical),CROSSROADS (HISTORICAL),Populated Place,Vanderburgh,163,38.1019876,-87.6458543,10/1/82,
2107214,Crosswinds At Windermere,CROSSWINDS AT WINDERMERE,Populated Place,Hamilton,57,39.9358333,-85.9738889,2/16/07,
433195,Crothersville,CROTHERSVILLE,Populated Place,Jackson,71,38.8006115,-85.8416384,2/14/79,5/1/14
433205,Crown Center,CROWN CENTER,Populated Place,Morgan,109,39.5794911,-86.5897227,2/14/79,5/1/14
449644,Crown Point,CROWN POINT,Populated Place,Lake,89,41.4169806,-87.3653136,2/14/79,5/1/14
433220,Crows Nest,CROWS NEST,Populated Place,Marion,97,39.8580967,-86.1685992,2/14/79,3/20/08
433225,Crumb Corner,CRUMB CORNER,Populated Place,Tippecanoe,157,40.4539238,-86.9277886,2/14/79,
452578,Crumstown,CRUMSTOWN,Populated Place,St. Joseph,141,41.6242129,-86.408068,2/14/79,5/1/14
450824,Crystal,CRYSTAL,Populated Place,Dubois,37,38.4919988,-86.7538827,2/14/79,
433233,Cuba,CUBA,Populated Place,Allen,3,41.1856051,-84.9385768,2/14/79,
433234,Cuba,CUBA,Populated Place,Bartholomew,5,39.3458842,-85.9691583,2/14/79,
433235,Cuba,CUBA,Populated Place,Owen,119,39.3781008,-86.7980628,2/14/79,
433239,Culver,CULVER,Populated Place,Marshall,99,41.2189311,-86.4230626,2/14/79,5/1/14
433242,Cumback,CUMBACK,Populated Place,Daviess,27,38.5586606,-87.1475092,2/14/79,5/1/14
433243,Cumberland,CUMBERLAND,Populated Place,Marion,97,39.7761534,-85.9572036,2/14/79,3/20/08
2107204,Cumberland Ridge,CUMBERLAND RIDGE,Populated Place,Hamilton,57,39.9388889,-85.9930556,2/16/07,
2107246,Cumberland Woods,CUMBERLAND WOODS,Populated Place,Hamilton,57,39.9661111,-85.9819444,2/16/07,
449035,Cunot,CUNOT,Populated Place,Owen,119,39.4564339,-86.8547315,10/1/82,
433254,Curby,CURBY,Populated Place,Crawford,25,38.2875626,-86.3772019,2/14/79,
433256,Curryville,CURRYVILLE,Populated Place,Sullivan,153,39.1869853,-87.3925191,2/14/79,
433257,Curryville,CURRYVILLE,Populated Place,Wells,179,40.7864359,-85.0719134,2/14/79,5/1/14
433262,Curtisville,CURTISVILLE,Populated Place,Tipton,159,40.3183718,-85.8985936,2/14/79,
433265,Cutler,CUTLER,Populated Place,Carroll,15,40.4764247,-86.5241649,2/14/79,5/1/14
450826,Cuzco,CUZCO,Populated Place,Dubois,37,38.4750548,-86.7227705,2/14/79,
433268,Cyclone,CYCLONE,Populated Place,Clinton,23,40.2283704,-86.4325006,2/14/79,
433272,Cynthiana,CYNTHIANA,Populated Place,Posey,129,38.1875442,-87.7103029,2/14/79,3/20/08
433608,Cypress,CYPRESS,Populated Place,Vanderburgh,163,37.9142091,-87.6297387,2/14/79,
433280,Dabney,DABNEY,Populated Place,Ripley,137,39.0900538,-85.3469064,2/14/79,
433281,Daggett,DAGGETT,Populated Place,Owen,119,39.2155983,-87.0388998,2/14/79,
452098,Daisy Hill,DAISY HILL,Populated Place,Washington,175,38.5061716,-85.939416,10/1/82,
433288,Dale,DALE,Populated Place,Spencer,147,38.1689416,-86.9899966,2/14/79,3/20/08
446669,Dale,DALE,Populated Place,Boone,11,40.0167075,-86.3999984,10/1/82,
433295,Daleville,DALEVILLE,Populated Place,Delaware,35,40.1211546,-85.5580301,2/14/79,3/20/08
447636,Dalton,DALTON,Populated Place,Wayne,177,39.98338,-85.1813538,10/1/82,
433305,Dana,DANA,Populated Place,Vermillion,165,39.8078145,-87.4950188,2/14/79,3/20/08
446700,Danes,DANES,Populated Place,Cass,17,40.7611511,-86.2611075,10/1/82,
433314,Danville,DANVILLE,Populated Place,Hendricks,63,39.7606013,-86.5263879,2/14/79,3/20/08
452126,Danville,DANVILLE,Populated Place,Clay,21,39.2644863,-87.0911235,10/1/82,
450829,Dark Hollow,DARK HOLLOW,Populated Place,Lawrence,93,38.8889389,-86.539439,2/14/79,
433318,Darlington,DARLINGTON,Populated Place,Montgomery,107,40.1100401,-86.7719507,2/14/79,5/1/14
433319,Darlington Woods,DARLINGTON WOODS,Populated Place,Montgomery,107,40.1197622,-86.8052843,2/14/79,
433320,Darmstadt,DARMSTADT,Populated Place,Vanderburgh,163,38.0992098,-87.5789075,2/14/79,5/1/14
433322,Darrough Chapel,DARROUGH CHAPEL,Populated Place,Howard,67,40.4786493,-86.0955465,2/14/79,
433335,Davidson,DAVIDSON,Populated Place,Harrison,61,37.9675717,-86.0471881,2/14/79,
450343,Daviess County,DAVIESS COUNTY,Civil,Daviess,27,38.70241,-87.0720685,2/14/79,1/8/13
433339,Davis,DAVIS,Populated Place,LaPorte,91,41.7147627,-86.8261389,2/14/79,
446749,Davy,DAVY,Populated Place,Vanderburgh,163,38.8667116,-87.5972457,10/1/82,
433363,Dawnbury,DAWNBURY,Populated Place,Marion,97,39.8697627,-86.1208201,2/14/79,
433368,Daylight,DAYLIGHT,Populated Place,Vanderburgh,163,38.0936542,-87.4905709,2/14/79,
433370,Dayton,DAYTON,Populated Place,Tippecanoe,157,40.3742026,-86.7688957,2/14/79,5/1/14
433371,Dayville,DAYVILLE,Populated Place,Warrick,173,37.9542118,-87.3222281,2/14/79,
433379,De Camp Gardens,DE CAMP GARDENS,Populated Place,Elkhart,39,41.6619937,-85.9191646,2/14/79,
433380,De Gonia Springs,DE GONIA SPRINGS,Populated Place,Warrick,173,38.0556038,-87.1855581,2/14/79,
433385,Deacon,DEACON,Populated Place,Cass,17,40.6339276,-86.3172193,2/14/79,12/12/05
433387,Dead Mans Crossing,DEAD MANS CROSSING,Populated Place,Posey,129,37.9583776,-87.9083606,2/14/79,
450344,Dearborn County,DEARBORN COUNTY,Civil,Dearborn,29,39.1451856,-84.9732607,2/14/79,1/8/13
446543,Decatur,DECATUR,Populated Place,Adams,1,40.830603,-84.9291329,2/14/79,3/20/08
450345,Decatur County,DECATUR COUNTY,Civil,Decatur,31,39.3069999,-85.5011431,2/14/79,1/8/13
433402,Decker,DECKER,Populated Place,Knox,83,38.5189362,-87.5230775,2/14/79,3/20/08
446746,Decker Chapel,DECKER CHAPEL,Populated Place,Knox,83,38.4894917,-87.5369667,10/1/82,
433408,Deedsville,DEEDSVILLE,Populated Place,Miami,103,40.91032,-86.101106,2/14/79,
449646,Deep River,DEEP RIVER,Populated Place,Lake,89,41.475593,-87.2233671,2/14/79,5/1/14
433418,Deer Creek,DEER CREEK,Populated Place,Lake,89,41.4205925,-87.2580896,2/14/79,
449647,Deer Creek,DEER CREEK,Populated Place,Carroll,15,40.6142048,-86.3911092,2/14/79,
433435,Deer Mill,DEER MILL,Populated Place,Montgomery,107,39.9475433,-87.0555651,2/14/79,
450425,Deer Park,DEER PARK,Populated Place,Jasper,73,41.1589257,-87.1991952,2/14/79,
433436,Deerfield,DEERFIELD,Populated Place,Randolph,135,40.2786554,-84.976356,2/14/79,
2107807,Deerwood,DEERWOOD,Populated Place,Johnson,81,39.5833333,-86.2194444,2/26/07,
433440,DeFries Landing,DEFRIES LANDING,Populated Place,Kosciusko,85,41.3658801,-85.7680451,2/14/79,
450346,DeKalb County,DEKALB COUNTY,Civil,DeKalb,33,41.3975799,-84.9990887,10/1/82,1/8/13
433448,Delaware,DELAWARE,Populated Place,Ripley,137,39.1478313,-85.2071816,2/14/79,
450347,Delaware County,DELAWARE COUNTY,Civil,Delaware,35,40.2275253,-85.3968993,2/14/79,1/8/13
433454,Delaware Trails,DELAWARE TRAILS,Populated Place,Marion,97,39.8800407,-86.1813777,2/14/79,
433458,Delong,DELONG,Populated Place,Fulton,49,41.1383753,-86.4163945,2/14/79,5/1/14
433460,Delp,DELP,Populated Place,Tippecanoe,157,40.4894798,-86.8091753,2/14/79,
433461,Delphi,DELPHI,Populated Place,Carroll,15,40.5875371,-86.6750059,2/14/79,12/6/13
433464,Deming,DEMING,Populated Place,Hamilton,57,40.1153149,-86.0985993,2/14/79,
452035,Deming Park,DEMING PARK,Populated Place,Vigo,167,39.4661485,-87.3544636,2/14/79,
433466,Deming Woods,DEMING WOODS,Populated Place,Vigo,167,39.4600374,-87.357797,2/14/79,
450503,DeMotte,DEMOTTE,Populated Place,Jasper,73,41.1950369,-87.1986403,10/1/82,3/20/08
433469,Denham,DENHAM,Populated Place,Pulaski,131,41.151985,-86.7136252,2/14/79,
433472,Denmark,DENMARK,Populated Place,Owen,119,39.2697645,-87.0258445,2/14/79,
433479,Denny Corner,DENNY CORNER,Populated Place,Hancock,59,39.885597,-85.8222013,2/14/79,
433483,Denver,DENVER,Populated Place,Miami,103,40.8661533,-86.0774938,2/14/79,3/20/08
433484,Depauw,DEPAUW,Populated Place,Harrison,61,38.3350635,-86.2174763,2/14/79,
433488,Deputy,DEPUTY,Populated Place,Jefferson,77,38.7942238,-85.6532986,2/14/79,1/29/11
2587016,Deputy Census Designated Place,DEPUTY CENSUS DESIGNATED PLACE,Census,Jefferson,77,38.795115,-85.6527241,6/10/10,4/25/13
450842,Derby,DERBY,Populated Place,Perry,123,38.03034,-86.5272018,2/14/79,
449648,Desoto,DESOTO,Populated Place,Delaware,35,40.2469871,-85.2935812,2/14/79,
450844,Deuchars,DEUCHARS,Populated Place,Crawford,25,38.1722852,-86.4483129,2/14/79,
433515,Devonshire,DEVONSHIRE,Populated Place,Marion,97,39.8805953,-86.0588738,2/14/79,
433516,Devore,DEVORE,Populated Place,Owen,119,39.4297683,-86.7527843,2/14/79,5/1/14
2107209,Devore Place,DEVORE PLACE,Populated Place,Hamilton,57,39.9361111,-85.9830556,2/16/07,
433519,Dewberry,DEWBERRY,Populated Place,Ripley,137,38.9511686,-85.151622,2/14/79,
433522,Dewey,DEWEY,Populated Place,Vigo,167,39.5094811,-87.3758529,2/14/79,
450847,Dexter,DEXTER,Populated Place,Perry,123,38.0592298,-86.4785897,2/14/79,
433527,Diamond,DIAMOND,Populated Place,Parke,121,39.6114296,-87.1661261,2/14/79,5/1/14
433540,Dickeyville,DICKEYVILLE,Populated Place,Warrick,173,38.1561599,-87.2197271,2/14/79,
433553,Dillman,DILLMAN,Populated Place,Wells,179,40.6103216,-85.4288617,2/14/79,
433558,Dillsboro,DILLSBORO,Populated Place,Dearborn,29,39.0178348,-85.0588433,2/14/79,5/1/14
433559,Dillsboro Station,DILLSBORO STATION,Populated Place,Dearborn,29,39.0306126,-85.0385653,2/14/79,
433566,Dinwiddie,DINWIDDIE,Populated Place,Lake,89,41.2894806,-87.3011442,2/14/79,
433567,Disko,DISKO,Populated Place,Wabash,169,41.0022659,-85.944436,2/14/79,
452036,Dixie,DIXIE,Populated Place,Harrison,61,38.1600674,-86.2121953,2/14/79,
433575,Dixon,DIXON,Populated Place,Greene,55,39.0708781,-87.0333427,2/14/79,
1048662,Dixon,DIXON,Populated Place,Van Wert,161,40.9506039,-84.8044066,7/12/79,
433586,Doans,DOANS,Populated Place,Greene,55,38.9192143,-86.8494482,2/14/79,5/1/14
452037,Dodd,DODD,Populated Place,Perry,123,37.91228,-86.6519286,2/14/79,
433595,Dodds Bridge,DODDS BRIDGE,Populated Place,Sullivan,153,39.1572628,-87.5239115,2/14/79,
433609,Dogwood,DOGWOOD,Populated Place,Harrison,61,38.1053478,-86.0844129,2/14/79,5/1/14
433612,Dolan,DOLAN,Populated Place,Monroe,105,39.2403246,-86.4991631,2/14/79,
433621,Domestic,DOMESTIC,Populated Place,Wells,179,40.6117126,-85.0885807,2/14/79,
433626,Donaldson,DONALDSON,Populated Place,Marshall,99,41.3611548,-86.4441764,2/14/79,
449071,Donaldsonville,DONALDSONVILLE,Populated Place,Clay,21,39.5292082,-87.0989038,10/1/82,
433632,Dongola,DONGOLA,Populated Place,Gibson,51,38.3719926,-87.3402914,2/14/79,
2515259,Dons Mobile Home Park,DONS MOBILE HOME PARK,Populated Place,Porter,127,41.5913889,-87.2013889,12/19/08,
450861,Doolittle Mills,DOOLITTLE MILLS,Populated Place,Perry,123,38.2508929,-86.6030412,2/14/79,
450427,Door Village,DOOR VILLAGE,Populated Place,LaPorte,91,41.5747645,-86.7689124,2/14/79,5/1/14
433640,Dooville,DOOVILLE,Populated Place,Grant,53,40.553375,-85.5599746,2/14/79,
433652,Douglas,DOUGLAS,Populated Place,Gibson,51,38.3306011,-87.5016868,2/14/79,
433657,Dover,DOVER,Populated Place,Dearborn,29,39.2414427,-84.9477332,2/14/79,
433658,Dover,DOVER,Populated Place,Boone,11,40.0544859,-86.6200041,2/14/79,
450862,Dover Hill,DOVER HILL,Populated Place,Martin,101,38.7250503,-86.8027778,2/14/79,1/29/11
2583449,Dover Hill Census Designated Place,DOVER HILL CENSUS DESIGNATED PLACE,Census,Martin,101,38.7221422,-86.8001898,3/31/10,4/25/13
433672,Downey Corner,DOWNEY CORNER,Populated Place,Ohio,115,38.9386701,-85.0102299,2/14/79,
433674,Downeyville,DOWNEYVILLE,Populated Place,Decatur,31,39.4275491,-85.5544172,2/14/79,
433678,Doyle,DOYLE,Populated Place,Miami,103,40.8080975,-86.0741597,2/14/79,
433681,Doyle Ferguson,DOYLE FERGUSON,Populated Place,Grant,53,40.578654,-85.4788618,2/14/79,
452858,Dreamwold Heights,DREAMWOLD HEIGHTS,Populated Place,St. Joseph,141,41.7528258,-86.2541739,10/1/82,
2583450,Dresser Census Designated Place,DRESSER CENSUS DESIGNATED PLACE,Census,Vigo,167,39.4633282,-87.4239287,3/31/10,4/25/13
433686,Drew,DREW,Populated Place,Delaware,35,40.2189319,-85.3869154,2/14/79,
433687,Drewersburg,DREWERSBURG,Populated Place,Franklin,47,39.3403316,-84.8371756,2/14/79,
433689,Drexel Gardens,DREXEL GARDENS,Populated Place,Marion,97,39.7405998,-86.2463779,2/14/79,
433693,Driftwood Hills,DRIFTWOOD HILLS,Populated Place,Marion,97,39.9169837,-86.1222095,2/14/79,
433735,Duane Yards,DUANE YARDS,Populated Place,Vigo,167,39.4950366,-87.388631,2/14/79,
452038,Dublin,DUBLIN,Populated Place,Wayne,177,39.8122686,-85.2088541,2/14/79,5/1/14
433736,Dubois,DUBOIS,Populated Place,Dubois,37,38.445332,-86.8044393,2/14/79,1/29/11
2629882,Dubois Census Designated Place,DUBOIS CENSUS DESIGNATED PLACE,Census,Dubois,37,38.445813,-86.7977556,8/30/10,4/25/13
451675,Dubois County,DUBOIS COUNTY,Civil,Dubois,37,38.3642764,-86.8798021,2/14/79,1/8/13
433738,Dubois Crossroads,DUBOIS CROSSROADS,Populated Place,Dubois,37,38.4811648,-86.8119402,2/14/79,
433752,Dudleytown,DUDLEYTOWN,Populated Place,Jackson,71,38.8497771,-85.8996971,2/14/79,
433754,Duff,DUFF,Populated Place,Dubois,37,38.3272743,-87.0263891,2/14/79,5/1/14
447635,Dugger,DUGGER,Populated Place,Sullivan,153,39.0700433,-87.261404,10/1/82,5/1/14
433768,Duncan,DUNCAN,Populated Place,Floyd,43,38.2881235,-85.924967,2/14/79,
433774,Dundee,DUNDEE,Populated Place,Madison,95,40.2722619,-85.7560886,2/14/79,
433775,Dune Acres,DUNE ACRES,Populated Place,Porter,127,41.649482,-87.085867,2/14/79,5/1/14
433776,Dune Acres Station,DUNE ACRES STATION,Populated Place,Porter,127,41.63726,-87.0847556,2/14/79,
446769,Duneland Beach,DUNELAND BEACH,Populated Place,LaPorte,91,41.7561512,-86.8333621,10/1/82,
2041363,Duneland Village,DUNELAND VILLAGE,Populated Place,Lake,89,41.6025366,-87.2722591,10/1/82,
2514866,Duneland Village of Gary,DUNELAND VILLAGE OF GARY,Populated Place,Lake,89,41.5972222,-87.2586111,12/16/08,
433778,Dunfee,DUNFEE,Populated Place,Whitley,183,41.086714,-85.3371973,2/14/79,
433785,Dunkirk,DUNKIRK,Populated Place,Cass,17,40.7564288,-86.3936115,2/14/79,
433786,Dunkirk,DUNKIRK,Populated Place,Jay,75,40.3753215,-85.2094149,2/14/79,3/20/08
433789,Dunlap,DUNLAP,Populated Place,Elkhart,39,41.6378271,-85.9216645,2/14/79,3/20/08
2392982,Dunlap Census Designated Place,DUNLAP CENSUS DESIGNATED PLACE,Census,Elkhart,39,41.6343611,-85.9235802,2/27/08,4/24/13
433790,Dunlapsville,DUNLAPSVILLE,Populated Place,Union,161,39.5908823,-84.9935723,2/14/79,
433791,Dunn,DUNN,Populated Place,Benton,7,40.5639255,-87.4639093,2/14/79,
433797,Dunn Mill,DUNN MILL,Populated Place,Allen,3,41.1622703,-85.2358069,2/14/79,
433799,Dunnington,DUNNINGTON,Populated Place,Benton,7,40.5642033,-87.4908543,2/14/79,
433800,Dunns Bridge,DUNNS BRIDGE,Populated Place,Jasper,73,41.2255948,-86.9739117,2/14/79,
433801,Dunreith,DUNREITH,Populated Place,Henry,65,39.8033789,-85.4385828,2/14/79,3/20/08
433805,Dupont,DUPONT,Populated Place,Jefferson,77,38.8900563,-85.5141296,2/14/79,3/20/08
433806,Durbin,DURBIN,Populated Place,Hamilton,57,40.0564269,-85.9108149,2/14/79,
433808,Durham,DURHAM,Populated Place,Gibson,51,38.259767,-87.5811333,2/14/79,
450428,Durham,DURHAM,Populated Place,LaPorte,91,41.5922635,-86.8375259,2/14/79,
433821,Dwenger Field,DWENGER FIELD,Populated Place,Allen,3,41.0794928,-85.1063589,2/14/79,
433824,Dyer,DYER,Populated Place,Lake,89,41.4942021,-87.5217068,2/14/79,3/20/08
449836,Eagle Point,EAGLE POINT,Populated Place,Kosciusko,85,41.3275465,-85.6777642,2/14/79,
2107808,Eagle Trace,EAGLE TRACE,Populated Place,Johnson,81,39.5936111,-86.1736111,2/26/07,
433855,Eagle Village,EAGLE VILLAGE,Populated Place,Boone,11,39.9605952,-86.2455477,2/14/79,
433857,Eagletown,EAGLETOWN,Populated Place,Hamilton,57,40.0422601,-86.1936023,2/14/79,
433858,Eaglewood Estates,EAGLEWOOD ESTATES,Populated Place,Boone,11,39.9514296,-86.31305,2/14/79,
433859,Eames,EAMES,Populated Place,Warrick,173,38.0792162,-87.1316676,2/14/79,
449649,Earl Park,EARL PARK,Populated Place,Benton,7,40.6828155,-87.4116891,2/14/79,3/20/08
433861,Earle,EARLE,Populated Place,Vanderburgh,163,38.0855985,-87.5133493,2/14/79,
452155,Early Station,EARLY STATION,Populated Place,Vermillion,165,39.7633714,-87.3852949,10/1/82,
452205,East Brightwood (historical),EAST BRIGHTWOOD (HISTORICAL),Populated Place,Marion,97,39.7975419,-86.0669287,10/1/82,
433875,East Chicago,EAST CHICAGO,Populated Place,Lake,89,41.6392024,-87.4547635,2/14/79,5/1/14
433876,East Columbus,EAST COLUMBUS,Populated Place,Bartholomew,5,39.2017183,-85.9016563,2/14/79,
433879,East Enterprise,EAST ENTERPRISE,Populated Place,Switzerland,155,38.8728383,-84.9880062,2/14/79,5/1/14
2587017,East Enterprise Census Designated Place,EAST ENTERPRISE CENSUS DESIGNATED PLACE,Census,Switzerland,155,38.870221,-84.9890479,6/10/10,4/25/13
433906,East Germantown,EAST GERMANTOWN,Populated Place,Wayne,177,39.8125465,-85.1374644,2/14/79,3/20/08
433907,East Glenn,EAST GLENN,Populated Place,Vigo,167,39.4858712,-87.2955738,2/14/79,
433909,East Haven,EAST HAVEN,Populated Place,Wayne,177,39.8392142,-84.9307948,2/14/79,
433916,East Lake Estates,EAST LAKE ESTATES,Populated Place,Elkhart,39,41.6978272,-85.9297209,2/14/79,
433917,East Liberty,EAST LIBERTY,Populated Place,Allen,3,40.9356037,-84.8616306,2/14/79,
433921,East Monticello,EAST MONTICELLO,Populated Place,White,181,40.7461502,-86.7533452,2/14/79,
433922,East Mount Carmel,EAST MOUNT CARMEL,Populated Place,Gibson,51,38.3933798,-87.7447502,2/14/79,5/1/14
